"place_id","zipcode","place_type","place_name","latitude","longitude","website_url","property_address","map_url","phone"
"ChIJVyQ710vq9IgR7bkPNuAbRsQ","30324","point_of_interest","The Gathering Place","33.3838196","-84.56916029999999","http://www.peachtree-city.org/index.aspx?NID=865","203 McIntosh Trail, Peachtree City, GA 30269, USA","https://maps.google.com/?cid=14143022329597245933","(770) 631-2553"
"ChIJ-WABo8YF9YgRGzy3bsMK7r8","30324","church","Passion City Church","33.8170293","-84.3712484","http://www.passioncitychurch.com/","515 Garson Dr NE, Atlanta, GA 30324, USA","https://maps.google.com/?cid=13830003340193774619","(678) 366-9192"
"ChIJy9vbUswF9YgRaWvBC0C9SL8","30324","church","Rock Spring Presbyterian Church","33.8045944","-84.36795430000001","http://www.rspc.org/","1824 Piedmont Ave NE, Atlanta, GA 30324, USA","https://maps.google.com/?cid=13783474742340184937","(404) 875-7483"
"ChIJ5ajQfdcF9YgRlv8JaB1I9XU","30324","church","New Covenant Church of Atlanta","33.8125723","-84.35714469999999","http://www.newcovenantatlanta.com/","2091 Faulkner Rd NE, Atlanta, GA 30324, USA","https://maps.google.com/?cid=8499779162868416406","(404) 929-1400"
"ChIJk3gCHBMG9YgRMxmeJ8dHbqY","30324","church","Westminster Presbyterian Church","33.82549599999999","-84.341185","http://www.westminster-pca.org/","1438 Sheridan Rd NE, Atlanta, GA 30324, USA","https://maps.google.com/?cid=11992601778422946099","(404) 636-1496"
"ChIJLTikIs4F9YgRJCYO3K4-rIs","30324","church","Cathedral Thrift House","33.8092492","-84.36546729999999","http://www.stphilipscathedral.org/Affiliated-OrganIzations/Cathedral-Thrift-House/","1893 Piedmont Rd NE, Atlanta, GA 30324, USA","https://maps.google.com/?cid=10064488188003362340","(404) 876-5440"
"ChIJb3cgfqQD9YgRT7H3R9LVw0k","30324","church","Destiny World Church","33.8316422","-84.3621048","","764 Miami Cir NE, Atlanta, GA 30324, USA","https://maps.google.com/?cid=5315327084354580815",""
"ChIJe1wklBIG9YgRhFmOalbY1cI","30324","church","West Minster Church","33.824841","-84.34267299999999","http://www.westminster-pca.org/","1406 Sheridan Rd NE, Atlanta, GA 30324, USA","https://maps.google.com/?cid=14039365279063890308","(404) 343-3780"
"ChIJa7b40cwF9YgRpMLOxPQ5XIE","30324","church","Morningside Baptist Church","33.80143","-84.36793999999999","http://morningsideatlanta.org/","1700 Piedmont Ave NE, Atlanta, GA 30324, USA","https://maps.google.com/?cid=9321389052186772132","(404) 876-8225"
"ChIJCTWUrSkE9YgRNeBzpNH-z8E","30324","church","Morningside Presbyterian Church","33.7934695","-84.3562479","http://www.morningsidepc.org/","1411 N Morningside Dr NE, Atlanta, GA 30306, USA","https://maps.google.com/?cid=13965661145859874869","(404) 876-7396"
"ChIJr3fZBSoE9YgRMa6HHVnPCYs","30324","church","Haygood Memorial United Methodist Church","33.7966143","-84.3539298","http://www.haygoodumc.org/","1015 E Rock Springs Rd NE, Atlanta, GA 30306, USA","https://maps.google.com/?cid=10018766827716849201","(404) 872-9613"
"ChIJoWefGSoE9YgR3yhz4F18448","30324","church","Haygood United Methodist Church","33.7965216","-84.35392879999999","http://haygoodumc.org/","975 E Rock Springs Rd NE, Atlanta, GA 30306, USA","https://maps.google.com/?cid=10368267509776459999","(404) 853-4704"
"ChIJ29psF68F9YgR9GpQZRYtodk","30324","church","ChristChurch Presbyterian","33.8016879","-84.39308899999999","http://christchurchatlanta.org/","1740 Peachtree St NE, Atlanta, GA 30309, USA","https://maps.google.com/?cid=15681864951693077236","(404) 605-0505"
"ChIJRWUh7G8E9YgRlcXk0UIRbDE","30324","church","North Avenue Presbyterian Church","33.7709966","-84.38455159999999","http://www.northavenuepres.org/","607 Peachtree St NE, Atlanta, GA 30308, USA","https://maps.google.com/?cid=3561240384030164373","(404) 875-0431"
"ChIJkVMNzZkF9YgRuz8BOLjlUfk","30324","church","Cathedral of Christ the King","33.8279482","-84.38677749999999","http://www.cathedralofchristtheking.org/","2699 Peachtree Rd, Atlanta, GA 30305, USA","https://maps.google.com/?cid=17965392967933968315","(404) 233-2145"
"ChIJv__sRkEG9YgR89IyJV0wAvk","30324","church","St Bartholomew's Episcopal Church","33.8175739","-84.32861919999999","http://www.stbartsatlanta.org/","1790 Lavista Rd NE, Atlanta, GA 30329, USA","https://maps.google.com/?cid=17942957042011656947","(404) 634-3336"
"ChIJN-2FDmUE9YgRFEc0sHDn8O4","30324","church","All Saints' Episcopal Church","33.7714596","-84.3876138","https://allsaintsatlanta.org/","634 West Peachtree St NW, Atlanta, GA 30308, USA","https://maps.google.com/?cid=17217515846615975700","(404) 881-0835"
"ChIJ3eTtX5cF9YgRxfdW1uPEywQ","30324","church","Second-Ponce de Leon Baptist Church","33.8292732","-84.3857958","http://www.spdl.org/","2715 Peachtree Rd, Atlanta, GA 30305, USA","https://maps.google.com/?cid=345586279256618949","(404) 266-8111"
"ChIJT6QvXScE9YgRUdxczB5DLxQ","30324","church","Grace Lutheran Church","33.7862297","-84.35475099999999","http://www.gracemidtown.com/","1155 North Highland Avenue Northeast, Atlanta, GA 30306, USA","https://maps.google.com/?cid=1454455004220677201","(404) 875-5411"
"ChIJNTsvdqQI9YgRddWPFwih_d0","30324","church","Brookhaven United Methodist Church","33.8526491","-84.33872199999999","http://www.brookhaven.church/","1366 N Druid Hills Rd, Atlanta, GA 30319, USA","https://maps.google.com/?cid=15996118507616982389","(404) 237-7506"
"ChIJAyUQ4u8G9YgRsmqJq2tmAP0","30322","church","Glenn Memorial United Methodist Church","33.78882370000001","-84.3233875","http://www.glennumc.org/","1660 N Decatur Rd, Atlanta, GA 30307, USA","https://maps.google.com/?cid=18230683904221211314","(404) 634-3936"
"ChIJ77t95O8G9YgRHQksiBAEF1Q","30322","church","Offices of Glenn Memorial UMC","33.7888025","-84.32340069999999","http://www.glennumc.org","1660 N Decatur Rd, Atlanta, GA 30307, USA","https://maps.google.com/?cid=6059316292700866845","(404) 634-3936"
"ChIJmXSFw-0G9YgRVB6N_nvL6cY","30322","church","Chabad House at Emory University","33.7879885","-84.3282066","http://chabademory.org/","1526 N Decatur Rd, Atlanta, GA 30307, USA","https://maps.google.com/?cid=14333211022495391316","(404) 441-3199"
"ChIJHRU8y_0G9YgRu3JEWzCxxYk","30322","church","Emory Presbyterian Church","33.7928812","-84.31459269999999","http://emorypresbyterian.org/","1886 N Decatur Rd, Atlanta, GA 30307, USA","https://maps.google.com/?cid=9927535774855885499","(404) 325-4551"
"ChIJabOKtf0G9YgRDQSRXDlHmx0","30322","place_of_worship","The Well","33.7926996","-84.3145109","http://thewellatl.org/","1886 N Decatur Rd, Atlanta, GA 30307, USA","https://maps.google.com/?cid=2133377160181777421","(404) 451-4677"
"ChIJdw7QNvsG9YgRnHYj5bf0-SE","30322","church","Emory University Catholic Center","33.7891674","-84.3190225","http://www.emorycatholic.org/","1753 N Decatur Rd, Atlanta, GA 30307, USA","https://maps.google.com/?cid=2448256943113074332","(404) 636-7237"
"ChIJbXD2j04G9YgRGO3lkoqZeGw","30322","church","Intown Community Church","33.81466350000001","-84.31793879999999","http://www.intown.org/","2059 Lavista Rd NE, Atlanta, GA 30329, USA","https://maps.google.com/?cid=7816165973750574360","(404) 633-8077"
"ChIJjY2TIUQG9YgRKxgZle0lutA","30322","synagogue","Congregation Beth Jacob","33.8159782","-84.32591549999999","http://www.bethjacobatlanta.org/","1855 Lavista Rd NE, Atlanta, GA 30329, USA","https://maps.google.com/?cid=15040375607896119339","(404) 633-0551"
"ChIJ4UrcwdIH9YgRofgjLWT3QH0","30322","synagogue","Congregation Bet Haverim","33.8160141","-84.3174772","http://www.congregationbethaverim.org/","2074 Lavista Rd, Atlanta, GA 30329, USA","https://maps.google.com/?cid=9025485662876596385","(404) 315-6446"
"ChIJVTuz07gG9YgRfHVnvk2Csr0","30322","church","Veritas Church","33.79025519999999","-84.3025236","http://veritaschurch.com/","2193 N Decatur Rd, Decatur, GA 30033, USA","https://maps.google.com/?cid=13669131089441420668","(404) 370-3977"
"ChIJv__sRkEG9YgR89IyJV0wAvk","30322","church","St Bartholomew's Episcopal Church","33.8175739","-84.32861919999999","http://www.stbartsatlanta.org/","1790 Lavista Rd NE, Atlanta, GA 30329, USA","https://maps.google.com/?cid=17942957042011656947","(404) 634-3336"
"ChIJEfy7pIQG9YgRw_Gakl5qm2M","30322","synagogue","Congregation Shearith Israel","33.79116349999999","-84.34844529999999","http://shearithisrael.com/","1180 University Dr NE, Atlanta, GA 30306, USA","https://maps.google.com/?cid=7177447385564115395","(404) 873-1743"
"ChIJ7UStNbIH9YgR321UVygNjc0","30322","school","Clairmont Presbyterian Church","33.8132716","-84.3080556","http://www.clairmontpres.org/","1994 Clairmont Rd, Decatur, GA 30033, USA","https://maps.google.com/?cid=14811509216406433247","(404) 634-3355"
"ChIJr3fZBSoE9YgRMa6HHVnPCYs","30322","church","Haygood Memorial United Methodist Church","33.7966143","-84.3539298","http://www.haygoodumc.org/","1015 E Rock Springs Rd NE, Atlanta, GA 30306, USA","https://maps.google.com/?cid=10018766827716849201","(404) 872-9613"
"ChIJoWefGSoE9YgR3yhz4F18448","30322","church","Haygood United Methodist Church","33.7965216","-84.35392879999999","http://haygoodumc.org/","975 E Rock Springs Rd NE, Atlanta, GA 30306, USA","https://maps.google.com/?cid=10368267509776459999","(404) 853-4704"
"ChIJiz5C87wG9YgR3YL5WLSsY7M","30322","church","St. Johns Lutheran Church","33.7757113","-84.34075519999999","http://www.stjohnsatlanta.org/","1410 Ponce De Leon Ave NE, Atlanta, GA 30307, USA","https://maps.google.com/?cid=12926365246070293213","(404) 378-4243"
"ChIJBUYTRLwG9YgROde8lplCgjc","30322","church","The Church of Jesus Christ of Latter-day Saints","33.7751409","-84.3396224","https://www.lds.org/locations?lang=eng","1450 Ponce De Leon Ave NE, Atlanta, GA 30307, USA","https://maps.google.com/?cid=3999832646484809529","(404) 373-2663"
"ChIJCTWUrSkE9YgRNeBzpNH-z8E","30322","church","Morningside Presbyterian Church","33.7934695","-84.3562479","http://www.morningsidepc.org/","1411 N Morningside Dr NE, Atlanta, GA 30306, USA","https://maps.google.com/?cid=13965661145859874869","(404) 876-7396"
"ChIJVyQ710vq9IgR7bkPNuAbRsQ","30322","point_of_interest","The Gathering Place","33.3838196","-84.56916029999999","http://www.peachtree-city.org/index.aspx?NID=865","203 McIntosh Trail, Peachtree City, GA 30269, USA","https://maps.google.com/?cid=14143022329597245933","(770) 631-2553"
"ChIJRbUxQSIH9YgRG9kCcPIRvQI","30322","church","Gentle Spirit Christian Church Office","33.7753251","-84.3052548","http://gentlespirit.org/","601 W Ponce de Leon Ave, Decatur, GA 30030, USA","https://maps.google.com/?cid=197333691633162523","(404) 604-8124"
"ChIJOQomk-ep9YgR0e7H_bF0fbY","30002","church","First Baptist Church Avondale Estates","33.7740776","-84.2607807","http://www.afbc.com/","47 Covington Rd, Avondale Estates, GA 30002, USA","https://maps.google.com/?cid=13149794794807488209","(404) 294-5285"
"ChIJ5w1Oe8ap9YgRetTxiiob7SY","30002","church","Kingdom Hall of Jehovah's Witnesses","33.7822216","-84.25353869999999","http://www.jw.org/","3346 Rockbridge Rd SW, Avondale Estates, GA 30002, USA","https://maps.google.com/?cid=2804928012455367802","(404) 297-9443"
"ChIJ_eoWKuip9YgR4AfygK_neq4","30002","church","Avondale Pattillo UMC","33.77414879999999","-84.25692909999999","http://avondalepattilloumc.org/","3260 Covington Hwy, Decatur, GA 30032, USA","https://maps.google.com/?cid=12572616050726799328","(404) 294-4063"
"ChIJ_6etZ1UH9YgRcrmzko8Ogxs","30002","church","Spirit and Truth Sanctuary","33.75471069999999","-84.27078589999999","http://www.mytruthsanctuary.com/","2915 Midway Rd, Decatur, GA 30030, USA","https://maps.google.com/?cid=1982444270777514354","(404) 243-5020"
"ChIJC4FAn08H9YgR-ltdZY6ZKJQ","30002","place_of_worship","Columbia Theological Seminary","33.7638177","-84.28164029999999","http://www.ctsnet.edu/","701 S Columbia Dr, Decatur, GA 30030, USA","https://maps.google.com/?cid=10675951753546783738","(404) 378-8821"
"ChIJEwiGXhUH9YgRLjyLo8tk-NY","30002","church","Decatur First United Methodist Church","33.7766664","-84.2922092","http://www.decaturfirst.org/","300 E Ponce de Leon Ave, Decatur, GA 30030, USA","https://maps.google.com/?cid=15490241744125770798","(404) 378-4541"
"ChIJs8XBeIap9YgRfIlPdej8rtQ","30002","church","Total Grace Christian Center Inc","33.88828399999999","-84.22749259999999","http://www.totalgrace.org/","3434 Pleasantdale Rd, Atlanta, GA 30340, USA","https://maps.google.com/?cid=15325464657319135612","(404) 289-2229"
"ChIJ0bDbX3EH9YgRVGe0WSybpSQ","30002","church","North Decatur United Methodist Church","33.791617","-84.2849449","http://www.ndumc.org/","1523 Church St, Decatur, GA 30030, USA","https://maps.google.com/?cid=2640687371308525396","(404) 373-3367"
"ChIJeVSQWxYH9YgRkRpZZJfqBeQ","30002","church","First Baptist Church","33.7788269","-84.29748420000001","http://fbcdecatur.com/","308 Clairemont Ave, Decatur, GA 30030, USA","https://maps.google.com/?cid=16430796751475645073","(404) 373-1653"
"ChIJD1-rMEAH9YgRXCemXr-jkzU","30002","church","Holy Trinity Parish Episcopal Church","33.7753913","-84.28896770000001","http://www.holytrinitydecatur.org/","515 E Ponce de Leon Ave, Decatur, GA 30030, USA","https://maps.google.com/?cid=3860609347908675420","(404) 377-2622"
"ChIJCfTINnIH9YgRWTlACAx4QU4","30002","place_of_worship","Shambhala Meditation Center","33.78962139999999","-84.2869529","http://atlanta.shambhala.org/","1447 Church St, Decatur, GA 30030, USA","https://maps.google.com/?cid=5638920201517939033","(404) 370-9650"
"ChIJIXt6J7YA9YgRYdaGeA_q-Jg","30002","church","Saint Philip AME Church","33.7464937","-84.2910266","http://www.saintphilip.org/","240 Candler Rd SE, Atlanta, GA 30317, USA","https://maps.google.com/?cid=11022817440156800609","(404) 371-0749"
"ChIJbzp86nQH9YgRHquYo2N4Y6Q","30002","church","North Decatur Presbyterian Church","33.79449179999999","-84.2896581","http://ndpc.org/","611 Medlock Rd, Decatur, GA 30033, USA","https://maps.google.com/?cid=11845443814256323358","(404) 636-1429"
"ChIJdRfvBhOq9YgRAbkQc91VTrg","30002","church","Holy Cross Episcopal Church","33.73271700000001","-84.25641499999999","http://www.holy-cross.org/","2005 S Columbia Pl, Decatur, GA 30032, USA","https://maps.google.com/?cid=13280646760768780545","(404) 284-1211"
"ChIJOfnnByUH9YgR9xgg_H8oLS0","30002","church","Resonate Atlanta Church","33.76806250000001","-84.3042662","http://www.resonateatlanta.org/","533 W Howard Ave, Decatur, GA 30030, USA","https://maps.google.com/?cid=3255302635814656247","(678) 607-6076"
"ChIJRbUxQSIH9YgRG9kCcPIRvQI","30002","church","Gentle Spirit Christian Church Office","33.7753251","-84.3052548","http://gentlespirit.org/","601 W Ponce de Leon Ave, Decatur, GA 30030, USA","https://maps.google.com/?cid=197333691633162523","(404) 604-8124"
"ChIJSwCkgS4H9YgROTHZ6Ws001c","30002","church","Trinity Anglican Mission","33.76041180000001","-84.3047466","http://trinityanglicanmission.org/","630 East Lake Dr, Decatur, GA 30030, USA","https://maps.google.com/?cid=6328459539475149113","(404) 367-6500"
"ChIJWxIp4SUH9YgRhDhFlYOCpgU","30002","place_of_worship","Atlanta Friends Meeting","33.7672997","-84.3064936","http://atlanta.quaker.org/","701 W Howard Ave, Decatur, GA 30030, USA","https://maps.google.com/?cid=407156317980276868","(404) 377-2474"
"ChIJPb3P8y2q9YgRBedjOAsuI0g","30002","church","The Covenant Church","33.74233","-84.231464","http://www.thecovenantatl.org/","1700 Corey Blvd, Decatur, GA 30032, USA","https://maps.google.com/?cid=5198049020641273605","(404) 289-8960"
"ChIJkWuWWc4A9YgReY6jJwzES5g","30002","church","Ikon community church","33.7468722","-84.2992234","http://ikoncommunitychurch.org/","241 Daniel Ave SE, Atlanta, GA 30317, USA","https://maps.google.com/?cid=10974080473502027385",""
"ChIJ0URmvLAO9YgRJcGsEevO_HE","30328","church","Lutheran Church-The Apostles","33.91986","-84.363865","http://www.apostlessandysprings.org/","6025 Glenridge Dr, Atlanta, GA 30328, USA","https://maps.google.com/?cid=8213667329426112805","(404) 255-8668"
"ChIJk6MPM6MO9YgR809qiWmj0iA","30328","church","Mount Vernon Presbyterian Church","33.9241479","-84.37166719999999","http://www.mvpchurch.org/","471 Mt Vernon Hwy, Atlanta, GA 30328, USA","https://maps.google.com/?cid=2365132427995271155","(404) 255-2211"
"ChIJC1HStCEM9YgRC8dX1pO6CVI","30328","synagogue","Congregation Or Hadash","33.9594575","-84.36199069999999","http://www.or-hadash.org/","7460 Trowbridge Rd, Sandy Springs, GA 30328, USA","https://maps.google.com/?cid=5911461130019522315","(404) 250-3338"
"ChIJMaMjS_gD9YgRNWU705AlDy4","30328","place_of_worship","Kadampa Meditation Center Georgia","33.75463800000001","-84.363213","http://meditationingeorgia.org/","741 Edgewood Ave NE, Atlanta, GA 30307, USA","https://maps.google.com/?cid=3318912754344748341","(678) 453-6753"
"ChIJv4umjpcO9YgRuAhJpRCJrsY","30328","synagogue","Congregation B'nai Torah","33.9292647","-84.36304629999999","http://www.bnaitorah.org/","700 Mount Vernon Hwy NE, Atlanta, GA 30328, USA","https://maps.google.com/?cid=14316530970042894520","(404) 257-0537"
"ChIJYaTGGqkO9YgRyUIb_Np6w5U","30328","church","Atlanta Georgia Temple - The Church of Jesus Christ of Latter-day Saints","33.9317841","-84.3624633","http://lds.org/church/temples/atlanta-georgia?lang=eng","6450 Barfield Rd NE, Sandy Springs, GA 30328, USA","https://maps.google.com/?cid=10791604213060944585","(770) 393-3698"
"ChIJR6to9aUO9YgRoOehnIE4NBc","30328","church","First Baptist Church of Sandy Springs","33.928552","-84.3649355","http://go-fbcss.org/","650 Mount Vernon Hwy NE, Sandy Springs, GA 30328, USA","https://maps.google.com/?cid=1672023490991089568","(404) 257-1143"
"ChIJffQYhRQEK4cRzKJYUf5ZNi4","30328","church","The Foundation of the World Church","33.9257859","-84.3521306","http://www.thefoundedworld.org/","6280 Peachtree Dunwoody Rd #1, Atlanta, GA 30328, USA","https://maps.google.com/?cid=3329947923308389068","(678) 744-5058"
"ChIJ0WktOO-e4RQRHrCJ-kj5wVE","30328","church","Sandy Springs Community Church","33.92647039999999","-84.3821416","http://sandyspringscommunitychurch.com","200 Johnson Ferry Rd, Sandy Springs, GA 30328, USA","https://maps.google.com/?cid=5891263879413608478","(404) 497-1691"
"ChIJtbNYzyEM9YgRVccJtc69eCs","30328","church","U Hope Ministry","33.9420594","-84.3739635","","6800 Roswell Rd, Atlanta, GA 30328, USA","https://maps.google.com/?cid=3132462236334409557","(404) 228-5798"
"ChIJIV2YRg4M9YgRFuTsP1IWgkU","30328","church","St. Jude the Apostle Catholic Church","33.9502316","-84.3631101","http://stjudeatlanta.net/","7171 Glenridge Dr, Atlanta, GA 30328, USA","https://maps.google.com/?cid=5008590278105031702","(770) 394-3896"
"ChIJm6vsdP4L9YgRJJtI5lM493Q","30328","church","Sandy Springs United Methodist Church","33.92355229999999","-84.38419519999999","http://www.ssumc.org/","86 Mount Vernon Hwy, Atlanta, GA 30328, USA","https://maps.google.com/?cid=8428267160644131620","(404) 255-1181"
"ChIJKTUdgegO9YgRAK4ycoFQ6oc","30328","church","Church Of Scientology Atlanta","33.902929","-84.3780309","http://www.scientology-atlanta.org/","5395 Roswell Rd NE, Atlanta, GA 30342, USA","https://maps.google.com/?cid=9793728856567492096","(770) 394-4414"
"ChIJS7YO3TYO9YgRG4ho3-YYlsE","30328","church","Northwest Unitarian Universalist Congregation","33.9026436","-84.4205764","http://nwuuc.org/","1025 Mount Vernon Hwy, Atlanta, GA 30327, USA","https://maps.google.com/?cid=13949364275696404507","(770) 955-1408"
"ChIJUUFfSj8O9YgRq5DPSbVhVcs","30328","synagogue","Temple Sinai","33.910143","-84.41796599999999","http://www.templesinaiatlanta.org/","5645 Dupree Dr NW, Sandy Springs, GA 30327, USA","https://maps.google.com/?cid=14651724393975091371","(404) 252-3073"
"ChIJU6FgpHoM9YgRflmarq5_aQ0","30328","church","Morgan Falls Church","33.9692676","-84.36381519999999","http://www.northspringsumc.org/","Sandy Springs, GA 30350, USA","https://maps.google.com/?cid=966443983278070142",""
"ChIJAcGNbnAM9YgRgQWf6bt5Uwc","30328","church","North Springs United Methodist Church","33.9681186","-84.3629188","http://www.northspringsumc.org/","7770 Roswell Rd, Atlanta, GA 30350, USA","https://maps.google.com/?cid=527899429317838209","(770) 396-0844"
"ChIJUe96oicP9YgRjENueVnYtu8","30328","church","Church of the Atonement","33.8898525","-84.3666374","","4945 High Point Rd NE, Atlanta, GA 30342, USA","https://maps.google.com/?cid=17273231299627074444","(404) 252-3324"
"ChIJx9JUkioM9YgRb-788uUYToA","30328","church","Sandy Springs Christian Church","33.9360677","-84.3914391","http://www.sandyspringscc.org/","301 Johnson Ferry Rd, Sandy Springs, GA 30328, USA","https://maps.google.com/?cid=9245354460941446767","(404) 252-3950"
"ChIJodN1g5AL9YgRGxwp_X7yqUU","30328","church","North Atlanta Church of Christ","33.967606","-84.3403196","http://www.nacofc.org/","5676 Roberts Dr, Dunwoody, GA 30338, USA","https://maps.google.com/?cid=5019809886908259355","(770) 399-5222"
"ChIJG8OG_CQG9YgRdQcHzitL1ww","30329","church","Unitarian Universalist Congregation of Atlanta","33.83580899999999","-84.32558299999999","http://www.uuca.org/","1911 Cliff Valley Way NE, Atlanta, GA 30329, USA","https://maps.google.com/?cid=925290899960170357","(404) 634-5134"
"ChIJl69k8CUG9YgRtDQxdvRKa9c","30329","church","Spiritual Living Center of Atlanta","33.8386331","-84.3234128","http://www.slca.com/","1730 Northeast Expy NE, Atlanta, GA 30329, USA","https://maps.google.com/?cid=15522582954477958324","(404) 417-0008"
"ChIJBQidqTAG9YgROAwfWinMKOg","30329","church","Mt Calvary Baptist Church","33.8281308","-84.3233116","","1600 Mt Mariah Rd NE, Atlanta, GA 30329, USA","https://maps.google.com/?cid=16728845293845417016","(404) 320-1900"
"ChIJ0xVEzicG9YgRwlOHIohRWGA","30329","mosque","Masjid Abu Bakr","33.842242","-84.3234779","http://abubakrmasjid.org/","1775 Briarwood Rd NE, Atlanta, GA 30329, USA","https://maps.google.com/?cid=6942388470728315842","(404) 424-9997"
"ChIJZ46urWkG9YgR3aFcbQc9rZ0","30329","church","Peachtree Baptist Church","33.8151218","-84.33509769999999","http://www.pbcatl.org/","2108 Briarcliff Rd NE, Atlanta, GA 30329, USA","https://maps.google.com/?cid=11361804537034482141","(404) 634-2463"
"ChIJbXD2j04G9YgRGO3lkoqZeGw","30329","church","Intown Community Church","33.81466350000001","-84.31793879999999","http://www.intown.org/","2059 Lavista Rd NE, Atlanta, GA 30329, USA","https://maps.google.com/?cid=7816165973750574360","(404) 633-8077"
"ChIJ3Wlj2AGn9YgRAzNWbEfDB0Q","30329","church","Daystar Church","33.814562","-84.31789379999999","http://www.daystaratlanta.org/","2059 Lavista Rd, Atlanta, GA 30329, USA","https://maps.google.com/?cid=4902101430943757059","(770) 493-4809"
"ChIJvdI3vywG9YgRH9f6Gt6QZUw","30329","church","Briarcliff Baptist Church","33.8370076","-84.3138452","http://www.briarcliffbaptist.org/","3039 Briarcliff Rd NE, Atlanta, GA 30329, USA","https://maps.google.com/?cid=5504965403140085535","(404) 633-6103"
"ChIJXw4Fnj0G9YgRU8214_a-OpY","30329","place_of_worship","City Of Light MCC Church","33.830415","-84.33221689999999","http://www.firstmcc.com/","1379 Tullie Cir NE, Atlanta, GA 30329, USA","https://maps.google.com/?cid=10825174621929983315","(404) 325-4143"
"ChIJpxX_LDAG9YgRX4WavpJRmAE","30329","church","Immaculate Heart of Mary","33.83275699999999","-84.32016089999999","http://www.ihmatlanta.org/","2855 Briarcliff Rd NE, Atlanta, GA 30329, USA","https://maps.google.com/?cid=114931481202820447","(404) 636-1418"
"ChIJjemDDMwH9YgRWwSWegb7y78","30329","church","Alexios Metropolis","33.828452","-84.309009","http://www.atlmetropolis.org/","2480 Clairmont Rd, Atlanta, GA 30329, USA","https://maps.google.com/?cid=13820415886761526363","(404) 634-2600"
"ChIJjemDDMwH9YgR9NMCrUvebCk","30329","church","Greek Orthodox Metropolis of Atlanta","33.828452","-84.309009","http://atlmetropolis.org/","2480 Clairmont Rd, Atlanta, GA 30329, USA","https://maps.google.com/?cid=2985005069646353396","(404) 634-9345"
"ChIJB7BLM2EG9YgRn8HLMlxSosg","30329","synagogue","Shaarei Shamayim","33.8062341","-84.336716","http://www.shaareishamayim.com/","1810 Briarcliff Rd NE, Atlanta, GA 30329, USA","https://maps.google.com/?cid=14457208309755396511","(404) 417-0472"
"ChIJE_exeTcG9YgRfLyi7_3r3OM","30329","church","First Alliance Church","33.8258498","-84.322367","http://www.facatl.org/","2512 N Druid Hills Rd NE, Atlanta, GA 30329, USA","https://maps.google.com/?cid=16419257817365658748","(404) 634-1209"
"ChIJv__sRkEG9YgR89IyJV0wAvk","30329","church","St Bartholomew's Episcopal Church","33.8175739","-84.32861919999999","http://www.stbartsatlanta.org/","1790 Lavista Rd NE, Atlanta, GA 30329, USA","https://maps.google.com/?cid=17942957042011656947","(404) 634-3336"
"ChIJjY2TIUQG9YgRKxgZle0lutA","30329","synagogue","Congregation Beth Jacob","33.8159782","-84.32591549999999","http://www.bethjacobatlanta.org/","1855 Lavista Rd NE, Atlanta, GA 30329, USA","https://maps.google.com/?cid=15040375607896119339","(404) 633-0551"
"ChIJ4UrcwdIH9YgRofgjLWT3QH0","30329","synagogue","Congregation Bet Haverim","33.8160141","-84.3174772","http://www.congregationbethaverim.org/","2074 Lavista Rd, Atlanta, GA 30329, USA","https://maps.google.com/?cid=9025485662876596385","(404) 315-6446"
"ChIJZ7_yybcH9YgR-Qy3JMx8w9o","30329","synagogue","Young Israel of Toco Hills","33.81540369999999","-84.31898649999999","http://www.yith.org/","2056 Lavista Rd, Atlanta, GA 30329, USA","https://maps.google.com/?cid=15763580336958016761","(404) 315-1417"
"ChIJuzH-UjYG9YgROEEkE0S0O8o","30329","school","Still Waters United Methodist Church","33.82364449999999","-84.31779069999999","http://www.stillwatersumc.org/","2650 N Druid Hills Rd NE, Atlanta, GA 30329, USA","https://maps.google.com/?cid=14572439223759290680","(404) 636-3005"
"ChIJK0BL29IH9YgRh152GLUVTsE","30329","church","Central Congregational United Church of Christ","33.83397379999999","-84.3131131","http://www.central-ucc.org/","2676 Clairmont Rd, Atlanta, GA 30329, USA","https://maps.google.com/?cid=13929094565047197319","(404) 633-4505"
"ChIJTyiiX24E9YgRhosPOAmjXe4","30332","church","St Paul's Presbyterian Church","33.77210910000001","-84.38208949999999","http://www.stpaulsatlanta.com/","163 Ponce De Leon Ave NE, Atlanta, GA 30308, USA","https://maps.google.com/?cid=17176063813851515782","(404) 593-0022"
"ChIJRWUh7G8E9YgRlcXk0UIRbDE","30332","church","North Avenue Presbyterian Church","33.7709966","-84.38455159999999","http://www.northavenuepres.org/","607 Peachtree St NE, Atlanta, GA 30308, USA","https://maps.google.com/?cid=3561240384030164373","(404) 875-0431"
"ChIJN-2FDmUE9YgRFEc0sHDn8O4","30332","church","All Saints' Episcopal Church","33.7714596","-84.3876138","https://allsaintsatlanta.org/","634 West Peachtree St NW, Atlanta, GA 30308, USA","https://maps.google.com/?cid=17217515846615975700","(404) 881-0835"
"ChIJpRx6xWgE9YgRrEP-H18e_rc","30332","church","Saint Mark United Methodist Church","33.7758853","-84.3842662","http://www.stmarkumc.org/","781 Peachtree St NE, Atlanta, GA 30308, USA","https://maps.google.com/?cid=13258067746932802476","(404) 873-2636"
"ChIJpbaw0HAE9YgRHfpBG-HdN44","30332","church","Renovation Church","33.764591","-84.38331029999999","http://www.renovationchurch.com/","120 Ralph McGill Blvd NE, Atlanta, GA 30308, USA","https://maps.google.com/?cid=10247903435999541789","(404) 414-0589"
"ChIJ1Q3ZVn8E9YgRxZ015hv_l-w","30332","point_of_interest","Tabernacle","33.7587518","-84.39136959999999","http://www.tabernacleatl.com/","152 Luckie St NW, Atlanta, GA 30303, USA","https://maps.google.com/?cid=17048375409725775301","(404) 659-9022"
"ChIJM09QO2kE9YgRXZqc-GeoPsE","30332","church","Saint Marks Church","33.7759391","-84.3824267","http://www.stmarkumc.org/","Atlanta, GA 30308, USA","https://maps.google.com/?cid=13924752262382262877",""
"ChIJCaLJghME9YgRiJpFnMWzbRM","30332","church","Grace United Methodist Church","33.7738923","-84.37189739999999","http://www.graceonponce.org/","458 Ponce De Leon Ave NE, Atlanta, GA 30308, USA","https://maps.google.com/?cid=1399972720493828744","(404) 876-2678"
"ChIJ2QMhqHAE9YgRwy9ThwZJEwY","30332","church","Basilica of the Sacred Heart of Jesus","33.7637613","-84.3856773","http://www.sacredheartatlanta.org/","353 Peachtree Center Ave NE, Atlanta, GA 30303, USA","https://maps.google.com/?cid=437773881174077379","(404) 522-6800"
"ChIJm4ZfiXAE9YgRT5hRdp4P6tY","30332","church","St. Luke's Episcopal Church","33.766445","-84.38473700000002","http://www.stlukesatlanta.org/","435 Peachtree St NE, Atlanta, GA 30308, USA","https://maps.google.com/?cid=15486207441931180111","(404) 873-7600"
"ChIJbe7UKYgD9YgRMmwBCczskGc","30332","church","First Congregational Church","33.758026","-84.38352499999999","http://firstchurchatl.org/","125 Ellis St NE, Atlanta, GA 30303, USA","https://maps.google.com/?cid=7462724943621483570","(404) 659-6255"
"ChIJgyDulBIE9YgRCQ31OH1ZCjE","30332","church","Atlanta Dream Center Church","33.7664436","-84.3659845","http://www.atldreamcenter.com/","652 Angier Ave NE, Atlanta, GA 30308, USA","https://maps.google.com/?cid=3533735251986943241","(404) 817-3502"
"ChIJWShrKYgD9YgRW6QS4MF5mOE","30332","church","First Congregational Church, UCC","33.75730369999999","-84.38388859999999","http://www.firstchurchatl.org/","105 Courtland St NE, Atlanta, GA 30303, USA","https://maps.google.com/?cid=16255876728588772443","(404) 659-6255"
"ChIJbe7UKYgD9YgRi4FyIw5PrrY","30332","church","First Congregational Church","33.7573449","-84.3839294","http://firstchurchatl.org/","105 Courtland St NE, Atlanta, GA 30303, USA","https://maps.google.com/?cid=13163545682993381771","(404) 659-6255"
"ChIJ3_5xW_UD9YgRM2j4ElqHVLA","30332","church","Ebenezer Baptist Church","33.7567754","-84.3739822","http://www.historicebenezer.org/","101 Jackson St NE, Atlanta, GA 30312, USA","https://maps.google.com/?cid=12705929269654087731","(470) 240-1265"
"ChIJbzMnKIoD9YgRT7MINu0vlJ0","30332","church","Big Bethel AME Church","33.7559329","-84.3804366","http://www.bigbethelame.org/","220 Auburn Ave NE, Atlanta, GA 30303, USA","https://maps.google.com/?cid=11354753256368157519","(404) 827-9707"
"ChIJY4Y6yUkD9YgR4OOd1eTSjgU","30332","church","West End Church of Christ","33.7391032","-84.4305146","http://www.thewestender.com/","1303 Ralph David Abernathy Blvd SW, Atlanta, GA 30310, USA","https://maps.google.com/?cid=400489297160823776","(404) 753-6271"
"ChIJl4FxPvUD9YgRXHL4VLEFA50","30332","church","Ebenezer Baptist Church","33.7563236","-84.37399569999999","http://www.historicebenezer.org/","400 Auburn Ave NE, Atlanta, GA 30312, USA","https://maps.google.com/?cid=11313892948077736540","(404) 688-7300"
"ChIJi1Ci7wgE9YgRWTZzPO0pYmY","30332","church","Progression Church","33.7608989","-84.3664624","http://www.progressionchurch.com/","637 Highland Ave NE, Atlanta, GA 30312, USA","https://maps.google.com/?cid=7377505238484465241","(678) 956-7764"
"ChIJYRxwmgoE9YgRX5K-_PX-N30","30332","church","Ebenezer Baptist Church","33.7552816","-84.3741691","http://www.historicebenezer.org/","407 Auburn Ave NE, Atlanta, GA 30312, USA","https://maps.google.com/?cid=9022960710920868447","(404) 688-7300"
"ChIJd8Ou0tnh9IgRoO7TVjOWcWE","30331","church","Campcreek Church of Christ","33.674066","-84.5574238","http://www.campcreekcoc.org/","2400 Merk Rd SW, Atlanta, GA 30331, USA","https://maps.google.com/?cid=7021558441291542176","(404) 349-2852"
"ChIJiz93cpwe9YgR2M5ydYx0D9I","30331","church","Elizabeth Baptist Church","33.735256","-84.526816","http://www.elizabethbaptist.org/","4245 Cascade Rd, Atlanta, GA 30331, USA","https://maps.google.com/?cid=15136445019230228184","(404) 691-3146"
"ChIJJeapMRwe9YgRNv-YVn8M41Q","30331","church","Ministries of New Life","33.6800801","-84.5372352","","4560 Tell Rd SW, Atlanta, GA 30331, USA","https://maps.google.com/?cid=6116746459952512822","(404) 344-2159"
"ChIJB8dOvwoc9YgRZISSKS-2s0s","30331","church","Fuller's Memorial Tabernacle","33.76227889999999","-84.5025926","","269 Fairburn Rd NW, Atlanta, GA 30331, USA","https://maps.google.com/?cid=5454903887352988772","(404) 505-1562"
"ChIJK4twz8jh9IgR67Tj-ldm0qA","30331","church","Berean Bible Baptist Church","33.659432","-84.55543900000001","http://www.bereanbiblebaptistchurch.org/","3515 Butner Rd, Atlanta, GA 30331, USA","https://maps.google.com/?cid=11588437319235122411","(404) 346-7149"
"ChIJKy_FRpIe9YgRENPzzVTA9PQ","30331","church","Turner Chapel AME Church","33.7332526","-84.54077079999999","http://www.gtcamechurch.com/services.html","4650 Cascade Rd, Atlanta, GA 30331, USA","https://maps.google.com/?cid=17650944310036910864","(404) 699-0023"
"ChIJD-ggqQUc9YgRCaUZinO4Qes","30331","church","New Life Christian Bible Church","33.7559676","-84.514056","","264 Wilson Mill Rd SW, Atlanta, GA 30331, USA","https://maps.google.com/?cid=16952033278776943881","(404) 696-5455"
"ChIJF4ENte4d9YgR6R2TuDhgPJg","30331","church","Believers Bible Christian Academy","33.6909","-84.50670000000001","","Atlanta, GA 30331, USA","https://maps.google.com/?cid=10969748589098769897","(404) 344-7203"
"ChIJv9oCzO4d9YgRxhA6f2LhLxU","30331","church","St. Mark AME Church","33.69093329999999","-84.5067031","http://www.stmarkameatl.org/","3605 Campbellton Rd SW, Atlanta, GA 30331, USA","https://maps.google.com/?cid=1526686611859443910","(404) 349-6800"
"ChIJYyq7ErUf9YgRQ_7yu5FHYQY","30331","church","Decision Point Ministries","33.70102","-84.56607","","5450 Campbellton Rd SW, Atlanta, GA 30331, USA","https://maps.google.com/?cid=459727328217595459","(404) 344-1855"
"ChIJm6R3XO0b9YgRYiXbaDAnrK4","30331","church","Welcome All Missionary Baptist","33.7753353","-84.5023307","","755 Bolton Rd NW, Atlanta, GA 30331, USA","https://maps.google.com/?cid=12586478147464799586","(404) 696-1218"
"ChIJOepSvcId9YgRydbs2lUGwgg","30331","church","Ben Hill United Methodist Church","33.6978611","-84.51034469999999","http://benhillumc.org/","2099 Fairburn Rd SW, Atlanta, GA 30331, USA","https://maps.google.com/?cid=631073863600232137","(404) 344-0618"
"ChIJW3S9WvEd9YgRjmcxidmo_Ac","30331","church","Mt Olive Baptist Church","33.6810872","-84.50667439999999","","2685 Barge Rd SW, Atlanta, GA 30331, USA","https://maps.google.com/?cid=575520504659666830","(404) 349-2457"
"ChIJ5ykMAQwc9YgR5QOJaAmo-JA","30331","church","Mt Calvary Baptist Church","33.7583212","-84.50598110000001","http://www.atlmtcalvary.org/","17 Fairburn Rd SW, Atlanta, GA 30331, USA","https://maps.google.com/?cid=10446284094047847397","(404) 696-1039"
"ChIJkWxXohQe9YgR2lBgfNAGh-k","30331","church","Greater Elizabeth Missionary","33.697097","-84.53842299999999","http://www.greaterelizabeth.org/","4555 Campbellton Rd SW, Atlanta, GA 30331, USA","https://maps.google.com/?cid=16827426025202798810","(404) 346-1004"
"ChIJh8JAswwc9YgRdw-xLEtIRRA","30331","church","Holy Deliverance Church","33.75703600000001","-84.50130999999999","","3462 Delmar Ln NW, Atlanta, GA 30331, USA","https://maps.google.com/?cid=1172422765709430647","(404) 472-0070"
"ChIJm914xpEd9YgRJtwGPC7iBfU","30331","church","Changing A Generation","33.68322980000001","-84.49896609999999","http://www.changingagenerationministries.org/","3350 Greenbriar Pkwy SW, Atlanta, GA 30331, USA","https://maps.google.com/?cid=17655766602379353126","(404) 284-8865"
"ChIJF8-SOkEe9YgRm-l2980sZzM","30331","church","Cornerstone Baptist Church","33.7022421","-84.54749439999999","http://www.cornerstonecommunitybc.org/","4895 Campbellton Rd SW, Atlanta, GA 30331, USA","https://maps.google.com/?cid=3703978481667205531","(404) 346-5533"
"ChIJC38SW3Uc9YgROMQQ-ZK4ayI","30331","church","St Stephens Overcoming Church","33.76296199999999","-84.50035299999999","","279 Hemphill School Rd NW, Atlanta, GA 30331, USA","https://maps.google.com/?cid=2480278961180951608","(404) 696-3831"
"ChIJy7oMnkd5f4gR45PYxcgxXWg","30331","church","Zion Hill Baptist Church","33.6952178","-84.58961959999999","http://www.zionhill.org/","6175 Campbellton Rd SW, Atlanta, GA 30331, USA","https://maps.google.com/?cid=7520221691161121763","(404) 691-8025"
"ChIJSyRyEhV09YgRQ17UU1lRKH8","30009","church","Jehovah's Witnesses","34.0917908","-84.33462159999999","http://www.jw.org/en/","910 Mayfield Rd, Alpharetta, GA 30009, USA","https://maps.google.com/?cid=9162662885985640003","(770) 442-2862"
"ChIJjSfwf5d19YgRH6QTXJYiETo","30009","church","Alpharetta Presbyterian Church","34.0769245","-84.28860809999999","http://www.alpharettapres.com/","180 Academy St, Alpharetta, GA 30009, USA","https://maps.google.com/?cid=4184163557989131295","(770) 751-0033"
"ChIJLRpVyWx09YgR3tsxywlmPAI","30009","church","Alpharetta First Baptist Church","34.0760558","-84.29293229999999","http://www.fbca.com/","44 Academy St, Alpharetta, GA 30009, USA","https://maps.google.com/?cid=161115878928276446","(770) 475-6556"
"ChIJn6KdDaZ19YgRhW0cyEWZtIM","30009","church","Grace North Atlanta Church","34.0711972","-84.3008725","http://www.gracenorthatlanta.org/","175 Roswell St, Alpharetta, GA 30009, USA","https://maps.google.com/?cid=9490378839765577093","(770) 331-1010"
"ChIJb8Xj2Lx19YgR85FjhMFnmaQ","30009","church","Alpharetta First United Methodist Church","34.0778666","-84.2938796","http://afumc.org","69 N Main St, Alpharetta, GA 30009, USA","https://maps.google.com/?cid=11860625174504378867","(770) 475-5576"
"ChIJYRId6Id19YgRj0sFKmHHSUo","30009","church","Saint James United Methodist Church","34.0760428","-84.2723048","http://www.stjamesumc.org/","3000 Webb Bridge Rd, Alpharetta, GA 30009, USA","https://maps.google.com/?cid=5353028852237290383","(678) 762-1543"
"ChIJ85-wa1V09YgRmU6BOYhx38I","30009","church","Spirit of God Christian Church","34.0596207","-84.3073663","http://www.spiritofgodcc.org/","1675-A Hembree Rd., Alpharetta, GA 30009, USA","https://maps.google.com/?cid=14042066993058762393","(770) 777-6889"
"ChIJbwshpcd09YgRiZkvGqt6Elg","30009","church","Olive Branch Tabernacle Of Faith","34.0360833","-84.33134629999999","http://www.obtoffaith.com/","1550 Warsaw Rd, Roswell, GA 30076, USA","https://maps.google.com/?cid=6346269700215773577","(470) 231-4251"
"ChIJqazv5sN09YgR7ffQrk89sQ0","30009","church","Communitas UMC","34.0404602","-84.32746619999999","http://www.communitasumc.org/","1154-, 1164 Old Roswell Rd, Roswell, GA 30076, USA","https://maps.google.com/?cid=986637205815490541","(404) 433-1186"
"ChIJkSqZ4Kl19YgRaxuEpj5eSCs","30009","church","The River Church","34.0665944","-84.3076239","","501 S Main St Suite 101, Alpharetta, GA 30004, USA","https://maps.google.com/?cid=3118846365128727403","(678) 860-0971"
"ChIJi4w75sB09YgRbiRUDapzCPw","30009","church","North Ga United Methodist Church","34.0411176","-84.3310571","","70 Mansell Ct, Alpharetta, GA 30005, USA","https://maps.google.com/?cid=18160892671576777838","(770) 362-1002"
"ChIJkVsKbMd09YgRW2vsll2AG4I","30009","church","Saint David's Episcopal Church","34.0376642","-84.3320708","http://stdavidchurch.org/","1015 Old Roswell Rd, Roswell, GA 30076, USA","https://maps.google.com/?cid=9375228188754209627","(770) 993-6084"
"ChIJH9Hu8T9z9YgRqhUt_NN8d54","30009","church","Northside church of Christ","34.04582870000001","-84.3755967","http://www.nschurchofchrist.org/","10920 Woodstock Rd, Roswell, GA 30075, USA","https://maps.google.com/?cid=11418732630131938730","(770) 993-3512"
"ChIJyRKoMtKf9YgRIrSWWsr9KTE","30009","church","North Point Community Church","34.0575715","-84.2597837","http://northpoint.org/","4350 North Point Pkwy, Alpharetta, GA 30022, USA","https://maps.google.com/?cid=3542641627448652834","(678) 892-5000"
"ChIJV7PEE7F09YgRu7rwPi9gs7Q","30009","mosque","Roswell Community Masjid (RCM)","34.030472","-84.34017899999999","http://www.roswellmasjid.org/","345 Market Pl, Roswell, GA 30075, USA","https://maps.google.com/?cid=13020856703693929147","(770) 640-1411"
"ChIJXdcf9S119YgRhBSVufwEq5o","30009","church","Epiphany Byzantine Catholic Church","34.0271189","-84.3011204","http://www.epiphanybyzantinecatholic.org/","2030 Old Alabama Rd, Roswell, GA 30076, USA","https://maps.google.com/?cid=11145007186350249092","(770) 993-0973"
"ChIJS3x7ma0M9YgRkmcaA4jItv4","30009","church","Roswell United Methodist Church","34.0208203","-84.36399059999999","http://www.rumc.com/","814 Mimosa Blvd, Roswell, GA 30075, USA","https://maps.google.com/?cid=18354077817888204690","(770) 993-6218"
"ChIJh8qoPmRz9YgRRN6RXiawb3g","30009","church","Northbrook United Methodist Church","34.053371","-84.359821","http://www.northbrookumc.com/","11225 Crabapple Rd, Roswell, GA 30075, USA","https://maps.google.com/?cid=8678348685808098884","(770) 998-2000"
"ChIJ-_-0AHpz9YgRXY7Iwv3WVpU","30009","church","Assembly of God Church","34.0628766","-84.3646481","","Roswell, GA 30075, USA","https://maps.google.com/?cid=10761024745031372381",""
"ChIJT7ZWtvmf9YgRWoZvpl8i_Xc","30009","church","Saint Brigid Catholic Church","34.0227842","-84.2606601","http://www.saintbrigid.org/","3400 Old Alabama Rd, Johns Creek, GA 30022, USA","https://maps.google.com/?cid=8646104653830784602","(678) 393-0060"
"ChIJFenrYXqz9YgRoR7bOlEsJuM","30012","church","Faith Plaza","33.6883754","-84.024974","","1240 Sigman Rd NW, Conyers, GA 30012, USA","https://maps.google.com/?cid=16367818623116058273","(770) 785-3933"
"ChIJiXiYaJy29YgRz-wd_q_ZB9Y","30012","church","Presbyterian Church-Resurrect","33.742396","-83.991767","http://www.pcrchurch.org/","3676 GA-20, Conyers, GA 30012, USA","https://maps.google.com/?cid=15422534798859431119","(770) 922-5553"
"ChIJz7KEB-609YgR_D_wByw7Q0U","30012","church","Community Worship International","33.68354","-83.990257","http://communityworship.org/","1695 Hill St NE, Conyers, GA 30012, USA","https://maps.google.com/?cid=4990897872354426876","(770) 483-0966"
"ChIJbcBUEg6z9YgR1xqD7XHuNWI","30012","church","New Vision Worship Center-Conyers","33.687889","-84.04399600000001","","1581 Lester Rd NW, Conyers, GA 30012, USA","https://maps.google.com/?cid=7076824562566109911","(770) 679-4837"
"ChIJGaHq_G609YgRt8yTD1iYjU8","30012","church","Blessed Hope Baptist Church","33.71002600000001","-84.002944","","2505 GA-20, Conyers, GA 30012, USA","https://maps.google.com/?cid=5732405404698397879",""
"ChIJMyLVese29YgRgFlEz_qI2YQ","30012","church","Redemptive Life Christian","33.7670527","-83.9985629","http://www.redemptivelifeblast.com/","406 Pleasant Hill Rd NW, Conyers, GA 30012, USA","https://maps.google.com/?cid=9572833093753264512","(770) 922-1234"
"ChIJS2m25IC29YgRK0UC9w348CI","30012","church","Rockdale True Gospel","33.7425833","-83.97675600000001","","2091 Black Shoals Rd NE, Conyers, GA 30012, USA","https://maps.google.com/?cid=2517784930562491691","(770) 860-8892"
"ChIJxcDtL1-z9YgR6H1Z5RtQXwk","30012","church","Conyers First United Methodist","33.6698211","-84.0182392","http://www.conyersfirst.org/","921 North Main St NW, Conyers, GA 30012, USA","https://maps.google.com/?cid=675346549871050216","(770) 483-4236"
"ChIJfd_oFo-29YgR7VKEqjJLUVk","30012","church","Bethel Christian Church","33.75233130000001","-83.981578","http://www.bcchome.org/","1930 Bethel Rd NE, Conyers, GA 30012, USA","https://maps.google.com/?cid=6436008023470396141","(770) 483-2371"
"ChIJ6XU96nqz9YgR0YlrhlIQzNQ","30012","church","Voices of Faith Ministries","33.6876308","-84.02661329999999","http://www.voicesfaith.org/","1290 Sigman Rd NW, Conyers, GA 30012, USA","https://maps.google.com/?cid=15333648777918253521","(678) 374-5040"
"ChIJFSroWGy09YgRH9otPB2j9Fo","30012","church","New Life Baptist","33.715462","-84.003984","","2700 Zingara Rd NE, Conyers, GA 30012, USA","https://maps.google.com/?cid=6554042703689931295","(770) 388-9677"
"ChIJzY6z-x-09YgRJqfhEeCJZYA","30012","church","Grace Missionary Baptist Church","33.7396237","-83.99706949999999","","300 W Hightower Trail, Conyers, GA 30012, USA","https://maps.google.com/?cid=9251952604968232742",""
"ChIJvxA3CoW09YgRX_7Ks-L1Mos","30012","church","Way-The Cross Baptist Church","33.6883","-84.0087999","","Conyers, GA 30012, USA","https://maps.google.com/?cid=10030349674135354975","(770) 922-4318"
"ChIJL-O-EPK09YgRymNLNfFRvjg","30012","church","Milstead Baptist Church","33.68531419999999","-83.9916425","","1613 Main St NE, Conyers, GA 30012, USA","https://maps.google.com/?cid=4088795608122090442","(770) 483-4754"
"ChIJ990J7Jmz9YgRJxWwjGtNOKs","30012","church","Conyers Hispanic SDA Church","33.7073276","-84.03365789999999","http://conyersspanishadventist22.adventistchurchconnect.org/","40 Lakeview Dr NW, Conyers, GA 30012, USA","https://maps.google.com/?cid=12337696303498663207","(404) 428-3580"
"ChIJpyUYhHyz9YgRvBhay6CcAU0","30012","church","Christian Growth Cathedral","33.6877753","-84.02166579999999","","1655 Irwin Bridge Rd NW, Conyers, GA 30012, USA","https://maps.google.com/?cid=5548888430317541564","(770) 918-0517"
"ChIJgyETDlqz9YgR5XRoraTnSwY","30012","church","Rock Temple AME Church","33.6637889","-84.0231598","","1021 Bryant St SW, Conyers, GA 30012, USA","https://maps.google.com/?cid=453710881950823653","(770) 922-5707"
"ChIJQaY5uECz9YgRwYKmoEEVr4w","30012","church","Faith Covenant Church","33.67029899999999","-84.037353","","1312 Olympic Ct SW, Conyers, GA 30012, USA","https://maps.google.com/?cid=10137344657846600385","(770) 761-7575"
"ChIJRzWRE2iz9YgRbMlzdJtghsY","30012","church","Pleasant Hill Christian Methodist Episcopal Church","33.6759433","-84.02824629999999","","Conyers, GA 30012, USA","https://maps.google.com/?cid=14305227487178901868",""
"ChIJTUhqM1-z9YgR_KX0x2zjdqQ","30012","church","Conyers Presbyterian Church","33.66922","-84.01808699999999","http://www.conyerspres.org/","911 North Main St NW, Conyers, GA 30012, USA","https://maps.google.com/?cid=11850909525822711292","(770) 929-0700"
"ChIJceTS3fzi9IgR6I-p5-Xwhg8","30337","church","Restoration Christian Church","33.631623","-84.47092099999999","","2459 Roosevelt Hwy, College Park, GA 30337, USA","https://maps.google.com/?cid=1118846427672973288","(404) 549-8034"
"ChIJjVrIwrDi9IgRnw9P9synqDw","30337","church","Providence Baptist Church","33.6573682","-84.44728189999999","http://www.providencebc.com/","1773 Hawthorne Ave, College Park, GA 30337, USA","https://maps.google.com/?cid=4370927937110609823","(404) 209-1423"
"ChIJj2Uasb7i9IgR_ULjALyMOSQ","30337","church","Mt Olive Church-God Holiness","33.6550859","-84.45422889999999","","1991 Princeton Ave, College Park, GA 30337, USA","https://maps.google.com/?cid=2610272198134547197","(404) 669-0089"
"ChIJQZWnZLDi9IgRFeGVWd6atTc","30337","church","College Park Presbyterian Church","33.66458049999999","-84.43948519999999","http://collegeparkpc.co/","1540 Mercer Ave, College Park, GA 30337, USA","https://maps.google.com/?cid=4014284922647077141","(404) 767-4985"
"ChIJG6oOfazi9IgRFa8nQ3FDgBk","30337","church","Hyatt Memorial Methodist Church","33.66559999999999","-84.441","","College Park, GA 30337, USA","https://maps.google.com/?cid=1837542801704202005",""
"ChIJ0WpD2bni9IgRMAVfnhP4eWw","30337","church","Christian Church","33.6535232","-84.44905630000001","","3726 Main St, Atlanta, GA 30337, USA","https://maps.google.com/?cid=7816551391423300912","(404) 766-6294"
"ChIJtUjtJ7ji9IgRPL3oZCo4ix8","30337","church","Columbia Avenue Church","33.6517761","-84.4488169","","College Park, GA 30337, USA","https://maps.google.com/?cid=2272972191671303484",""
"ChIJHwm5tuTi9IgRqz40fs1Xu-U","30337","church","Light of Life Ministries","33.6350682","-84.4693669","","2471 Riverdale Rd, Atlanta, GA 30337, USA","https://maps.google.com/?cid=16553921395427655339","(404) 767-6220"
"ChIJceTS3fzi9IgRBp_ZAlELce4","30337","place_of_worship","Truth & Transformation Ministries","33.631623","-84.47092099999999","http://truthandtransform.org/","2459 Roosevelt Hwy, Atlanta, GA 30337, USA","https://maps.google.com/?cid=17181526495963225862",""
"ChIJK0Cmdeji9IgRof__ogdiU3w","30337","church","South Side Church","33.6392765","-84.4607616","","College Park, GA 30337, USA","https://maps.google.com/?cid=8958611868709027745",""
"ChIJ0Wu-sb_i9IgRMns4FCRwKyw","30337","church","Emmaus Road Baptist Church","33.6525","-84.45740000000001","http://www.emmausrd.org/","College Park, GA 30337, USA","https://maps.google.com/?cid=3182760861927766834",""
"ChIJ0WpD2bni9IgR354FskwCraI","30337","church","College Park First United Methodist Church","33.6535736","-84.44856759999999","http://www.cpfirstumc.org/","3726 E. Main Street, College Park, GA 30337, USA","https://maps.google.com/?cid=11722027933542751967","(404) 766-6294"
"ChIJ3yY7MbDi9IgRfo1l8l4K62k","30337","church","Saint Johns Church","33.6598314","-84.4465948","http://www.stjohnscollegepark.com/","College Park, GA 30337, USA","https://maps.google.com/?cid=7632205396419382654",""
"ChIJJayRS6ni9IgRWZCP9RJuY5A","30337","place_of_worship","Masjid Al-Bayyinah","33.66653520000001","-84.44455619999999","https://www.twitter.com/albayyinahatl","3270 E Main St, College Park, GA 30337, USA","https://maps.google.com/?cid=10404280591864270937","(470) 355-1863"
"ChIJ31jvi73i9IgRBv0HZuF5sbk","30337","church","Liberty Church of God in Christ","33.6575","-84.459","","College Park, GA 30337, USA","https://maps.google.com/?cid=13380609976880856326",""
"ChIJH0PuZVTi9IgRNxV-8SiA3VM","30337","church","United Mission Church of God","33.63249499999999","-84.484579","","4517 White City Rd, College Park, GA 30337, USA","https://maps.google.com/?cid=6043127188339692855","(404) 767-2883"
"ChIJUUPB9bzi9IgRYURT4-RUJDI","30337","church","Mt Calvary Baptist Church","33.6586044","-84.45548769999999","http://mtcalvarycp.org/","777 Simmons Ave, College Park, GA 30337, USA","https://maps.google.com/?cid=3613106143101142113","(404) 766-1300"
"ChIJ1zdQqqLi9IgRL9Gl_UQ00lc","30337","church","Calvary Baptist Church","33.661596","-84.4591389","","2134 Cambridge Ave, College Park, GA 30337, USA","https://maps.google.com/?cid=6328177897326891311","(404) 761-4673"
"ChIJ5bseJynj9IgRGTd9nvfxuAE","30337","church","New Birth United Church of God","33.6227","-84.446","","College Park, GA 30349, USA","https://maps.google.com/?cid=124115035570911001",""
"ChIJGeEyKrDi9IgRFoCstpCTs6k","30337","church","St John's Episcopal Church","33.660646","-84.44642499999999","http://www.stjohnscollegepark.com/","3480 Main St, College Park, GA 30337, USA","https://maps.google.com/?cid=12228279662990360598","(404) 761-8402"
"ChIJO0t6RUZL9IgRQPzuUapeGTU","30013","church","Conyers Church of Christ","33.638071","-83.99907399999999","http://www.conyerschurchofchrist.com/","1410 Flat Shoals Rd SE, Conyers, GA 30013, USA","https://maps.google.com/?cid=3826193444040014912","(770) 922-8341"
"ChIJ88ZQ795K9IgRnSX6g4vUKc8","30013","church","The Branch Worship Center","33.631224","-83.97109499999999","http://branchworshipcenter.org/","2285 Iris Dr SE, Conyers, GA 30013, USA","https://maps.google.com/?cid=14927696135575971229","(770) 602-1888"
"ChIJ1dVV8J3K9YgRYjzilRti-5g","30013","church","Ball Rock Church","33.6765006","-83.93157509999999","","Conyers, GA 30013, USA","https://maps.google.com/?cid=11023512383537691746",""
"ChIJo9zOFdW09YgRfSHafy4d6b4","30013","church","Belmont Baptist Church","33.6254554","-83.9427281","http://www.belmontbaptistchurch.com/","3275 Iris Dr SE, Conyers, GA 30013, USA","https://maps.google.com/?cid=13756558622330593661","(770) 786-8676"
"ChIJ8zMTYlSz9YgRzeTqcxsBxpM","30013","church","Discover Point Church","33.64862960000001","-84.01302919999999","http://www.discoverpointchurch.com/","1605 Highway 138 Southeast, Conyers, GA 30013, USA","https://maps.google.com/?cid=10648199586384635085","(770) 922-4040"
"ChIJr7zqmTBL9IgRyOOs2WvOCUc","30013","church","Springfield Baptist Church","33.6399502","-83.98931159999999","https://www.sbclive.org/","1873 Iris Dr SE, Conyers, GA 30013, USA","https://maps.google.com/?cid=5118849414092088264","(770) 929-1111"
"ChIJ6bAD2StL9IgRY4bJ9nY_pN0","30013","church","First Shady Grove Baptist Church","33.64467","-83.977926","","2105 Old Covington Rd NE, Conyers, GA 30013, USA","https://maps.google.com/?cid=15970959958741714531","(770) 483-8283"
"ChIJX9Evcdy09YgRIzp1w4an_Gc","30013","place_of_worship","Conyers Church of God","33.6673292","-83.98149629999999","http://conyerscog.org/","NE,, 1825 GA-138, Conyers, GA 30013, USA","https://maps.google.com/?cid=7493048077284358691","(770) 922-5834"
"ChIJs_Q2RTBL9IgRW3gQcIU9IAE","30013","church","Church in the Now","33.6209467","-83.831971","","13183 Harland Dr NE, Covington, GA 30014, USA","https://maps.google.com/?cid=81132436612741211","(770) 922-5334"
"ChIJFYzYOapM9IgRAUU3WjH9uT8","30013","church","Christ Community Church","33.623289","-83.997288","http://www.ccceastmetro.org/","2455 Old Salem Rd SE, Conyers, GA 30013, USA","https://maps.google.com/?cid=4591979683489727745","(678) 413-4646"
"ChIJzV0yYmtL9IgRfH_xerK_eGc","30013","church","Rockdale Community Church","33.623289","-83.997288","http://www.rockdalecommunitychurch.org/","2455 Old Salem Rd SE, Conyers, GA 30013, USA","https://maps.google.com/?cid=7455919956399587196","(770) 922-0107"
"ChIJz-8VJP9L9IgRHiJTWixkOuQ","30013","church","Crosspoint Christian Church","33.56726739999999","-84.0149445","http://www.xpt.cc/","4550 GA-20, Conyers, GA 30013, USA","https://maps.google.com/?cid=16445567130953523742","(770) 483-1887"
"ChIJmXBGLWBL9IgRy2fdwb0q0tA","30013","church","Epiphany Lutheran Church","33.6268209","-84.0153323","http://www.conyerselc.org/","SE, 2375 GA-20, Conyers, GA 30013, USA","https://maps.google.com/?cid=15047136299487946699","(770) 483-6222"
"ChIJX6bZ9k1K9IgRpGHrIdh07O0","30013","church","The Redeemed Christian Assembly","33.5936135","-83.9700318","http://www.trcachurch.org/","2455 Salem Rd SE, Conyers, GA 30013, USA","https://maps.google.com/?cid=17144206353123467684","(770) 728-3259"
"ChIJibDEJC1L9IgRLlulBDV7T6c","30013","church","Redeeming Love Christian Church","33.649323","-83.983333","http://redeeming.org/","1931 Old Covington Rd NE, Conyers, GA 30013, USA","https://maps.google.com/?cid=12055990195135535918","(770) 922-1491"
"ChIJK64n9tZK9IgRwOHJIvPiThU","30013","church","Bald Rock Baptist Church","33.64231899999999","-83.971772","http://baldrockbaptistchurch.org/","2284 Old Covington Rd NE, Conyers, GA 30013, USA","https://maps.google.com/?cid=1535414056868504000","(770) 929-3421"
"ChIJtUMJBd9K9IgRe_OqgESvTcs","30013","church","Fountain of Life Tabernacle","33.63081","-83.972644","http://fountainoflifetabernacle.org/","Edwards Dr, Conyers, GA 30013, USA","https://maps.google.com/?cid=14649557871657415547","(770) 918-0104"
"ChIJ68T-T75M9IgRbO4nXHwe6jw","30013","church","Seventh-day Adventist Church","33.61038420000001","-83.9931096","http://conyerschurch.org/","3001 Old Salem Rd SE, Conyers, GA 30013, USA","https://maps.google.com/?cid=4389354306296868460","(770) 483-0764"
"ChIJ7y50Lqm09YgRB1HFj99A15g","30013","church","Logos International Fellowship, Conyers GA","33.65946900000001","-84.011797","http://www.thelogosfellowship.org/","2385 Wall St, Conyers, GA 30013, USA","https://maps.google.com/?cid=11013342742691795207","(678) 712-4395"
"ChIJLxlVz_1K9IgRbfaqbJrIamI","30013","church","Grace Covenant Presbyterian","33.611809","-83.972433","http://gracecovenantpresbyterian.atlpcusa.org/","2900 Salem Rd SE, Conyers, GA 30013, USA","https://maps.google.com/?cid=7091701128821929581","(770) 786-0111"
"ChIJodN1g5AL9YgRGxwp_X7yqUU","30338","church","North Atlanta Church of Christ","33.967606","-84.3403196","http://www.nacofc.org/","5676 Roberts Dr, Dunwoody, GA 30338, USA","https://maps.google.com/?cid=5019809886908259355","(770) 399-5222"
"ChIJX0mYCf0A9YgROJDHVEjIFno","30338","church","First Baptist Church Atlanta","33.9220966","-84.2988769","http://www.fba.org/","4400 N Peachtree Rd, Atlanta, GA 30338, USA","https://maps.google.com/?cid=8797439135100407864","(770) 234-8300"
"ChIJ8xSLDuQL9YgRt3EOwdmxS5Y","30338","church","Dunwoody Baptist Church","33.9413315","-84.33900199999999","http://www.dbc.org/","1445 Mt Vernon Rd, Dunwoody, GA 30338, USA","https://maps.google.com/?cid=10829945277747458487","(770) 280-1200"
"ChIJv13xoUYK9YgRgJstSkpK49A","30338","church","Life Center Ministries","33.96085719999999","-84.297507","http://www.lifecenter.org/","2690 Mt Vernon Rd, Dunwoody, GA 30338, USA","https://maps.google.com/?cid=15051956062534867840","(770) 399-0660"
"ChIJCUIZsSkK9YgRvlhWe9PtunQ","30338","church","Hispanic SDA Church","33.93454499999999","-84.30470099999999","","2197 Peeler Rd, Dunwoody, GA 30338, USA","https://maps.google.com/?cid=8411296746630961342","(770) 688-6525"
"ChIJtR0Kn-gL9YgR5eP1IvL6PYA","30338","church","Dunwoody United Methodist Church","33.9456308","-84.33648719999999","http://www.dunwoodyumc.org/","1548 Mt Vernon Rd, Dunwoody, GA 30338, USA","https://maps.google.com/?cid=9240817928309695461","(770) 394-0675"
"ChIJL50OqNkL9YgRYJuXf1xDrx0","30338","church","Calvary Church","33.936795","-84.324265","http://www.calvaryatlanta.com/","5067 Chamblee Dunwoody Rd, Dunwoody, GA 30338, USA","https://maps.google.com/?cid=2139002412580969312","(770) 393-2197"
"ChIJayDv9iAK9YgRYDEeZeIJ58c","30338","church","St Patrick's Episcopal Church","33.9341014","-84.2940546","http://stpat.net/","4755 N Peachtree Rd, Atlanta, GA 30338, USA","https://maps.google.com/?cid=14404492801131557216","(770) 455-6523"
"ChIJ__Mh6MIL9YgR2CyKiUA7w2Y","30338","mosque","Masjid Uthman (Dunwoody Community Center)","33.9213453","-84.31022809999999","http://masjiduthmanatlanta.org/","1 Dunwoody Park S #250, Dunwoody, GA 30338, USA","https://maps.google.com/?cid=7404827360698707160","(678) 871-7786"
"ChIJcbI1_SMK9YgRTUYHRcJAdPE","30338","place_of_worship","Kingswood United Methodist Church","33.9388527","-84.2955695","https://kingswoodumc.org/","5015 Tilly Mill Rd, Dunwoody, GA 30338, USA","https://maps.google.com/?cid=17398602463565006413","(770) 457-1317"
"ChIJ3XnJxMgL9YgRvK_8Ihf0uKA","30338","church","Saint Luke's Presbyterian Church","33.95101969999999","-84.320634","http://www.slpres.org/","1978 Mt Vernon Rd, Dunwoody, GA 30338, USA","https://maps.google.com/?cid=11581274821991641020","(770) 393-1424"
"ChIJAQAAANAL9YgRImIis6ffkt0","30338","church","Discover Life Church","33.93454499999999","-84.30470099999999","http://www.discoverlifega.org/","2197 Peeler Rd, Atlanta, GA 30338, USA","https://maps.google.com/?cid=15966069540339737122","(770) 393-1900"
"ChIJM01cqiEK9YgRRe9o06yQyzI","30338","church","St Barnabas Anglican Church","33.9351238","-84.29374989999999","http://stbarnabasatl.org/","4795 N Peachtree Rd, Dunwoody, GA 30338, USA","https://maps.google.com/?cid=3660178194124304197","(770) 457-1103"
"ChIJq7b6bIQJ9YgRdrFPufEHCdk","30338","hindu_temple","Hindu Temple Of Dunwoody Parivaar","33.9256839","-84.306005","http://www.hindutempleofdunwoody.com/","2029 Pernoshal Ct, Atlanta, GA 30338, USA","https://maps.google.com/?cid=15639039915798278518","(323) 424-4286"
"ChIJCYTDLJ0J9YgRvRRzNNNfOKI","30338","mosque","Masjid Uthman","33.9217612","-84.30993599999999","http://www.masjiduthmanatlanta.org/","1 Dunwoody Park S #250, Atlanta, GA 30338, USA","https://maps.google.com/?cid=11689198193562817725","(678) 871-7786"
"ChIJIzHEpToK9YgR2nBipWJuDtU","30338","synagogue","Congregation Ariel","33.9445818","-84.3005331","https://www.congariel.org/","5227 Tilly Mill Rd, Dunwoody, GA 30338, USA","https://maps.google.com/?cid=15352329549713141978","(770) 390-9071"
"ChIJD8QadUgK9YgRgwiNQWgloIc","30338","church","All Saints Catholic Church","33.9565378","-84.30158609999999","http://www.allsaints.us","2443 Mt Vernon Rd, Atlanta, GA 30338, USA","https://maps.google.com/?cid=9772852321100564611","(770) 393-3255"
"ChIJd7lgetkL9YgR3k5EbCTbIik","30338","church","Atlanta North SDA Church","33.9385666","-84.3259695","http://www.atlantanorthchurch.com/","5123 Chamblee Dunwoody Rd, Dunwoody, GA 30338, USA","https://maps.google.com/?cid=2964172454244929246","(770) 399-6884"
"ChIJAZbrS58L9YgRH0wdxqCMfhw","30338","synagogue","Temple Emanu-El","33.974929","-84.33357869999999","http://www.templeemanuelatlanta.org/","1580 Spalding Dr, Atlanta, GA 30350, USA","https://maps.google.com/?cid=2053233102273989663","(770) 395-1340"
"ChIJB92Dip8J9YgRE1tCKtr3oQE","30338","church","Chamblee First United Methodist Church","33.9110587","-84.3087987","http://www.chambleeumc.org/","4147 Chamblee Dunwoody Rd, Atlanta, GA 30341, USA","https://maps.google.com/?cid=117647581672266515","(770) 457-2525"
"ChIJ8Vk9LZ2n9YgRV5D7aRuPfsM","30341","church","Embry Hills Church of Christ","33.8838389","-84.2594155","http://www.embryhills.com/","3250 Chamblee Tucker Rd, Atlanta, GA 30341, USA","https://maps.google.com/?cid=14086854032366473303","(770) 455-8412"
"ChIJZz4gf24I9YgRbDharSAsuXA","30341","church","The Gathering Place Atlanta","33.85803799999999","-84.295177","http://glbtchurch.com/","2700 Northeast Expy #100, Atlanta, GA 30345, USA","https://maps.google.com/?cid=8122571921798346860","(404) 815-0007"
"ChIJK2yBiIen9YgRWrlt2fkjVhM","30341","church","AME Sixth District Headquarters","33.87883109999999","-84.26980089999999","","2900 Chamblee Tucker Rd # 3, Atlanta, GA 30341, USA","https://maps.google.com/?cid=1393340690719422810","(770) 220-1770"
"ChIJR0Wty1II9YgRLCiPxSTtZDk","30341","church","Iglessia De Dios Penticostcal","33.887938","-84.303085","","5295 New Peachtree Rd, Chamblee, GA 30341, USA","https://maps.google.com/?cid=4135691100022057004","(770) 455-7756"
"ChIJzat1LpEJ9YgRuN8jWx-Vrsw","30341","church","Korean Central Presbyterian","33.916096","-84.29834699999999","http://joongangch.org/","4201 N Peachtree Rd, Atlanta, GA 30341, USA","https://maps.google.com/?cid=14748889791590555576","(770) 457-1998"
"ChIJcdnCQTII9YgRX6VePL-DmYM","30341","church","Northside Community Church","33.8824066","-84.2819312","","2605 Chamblee Tucker Rd, Atlanta, GA 30341, USA","https://maps.google.com/?cid=9482755347780117855","(770) 451-2220"
"ChIJuRyJbl0I9YgRa0yNZmCAvz8","30341","church","The Universal Church","33.86703780000001","-84.30297329999999","http://www.universalusa.org/","2130 Dresden Dr, Atlanta, GA 30341, USA","https://maps.google.com/?cid=4593531296466947179","(404) 633-2244"
"ChIJI23XRXQJ9YgR2Cb67l2Rj3A","30341","synagogue","Chabad Israeli Center","33.9148131","-84.3157514","http://www.cclcatl.com/","4276 Chamblee Dunwoody Rd, Chamblee, GA 30341, USA","https://maps.google.com/?cid=8110861286544910040",""
"ChIJD0opd4Sn9YgRrDFzjiWMVnA","30341","church","New Covenant Community Church","33.8806657","-84.26199149999999","http://atlantanccc2.org/","3147 Chamblee Tucker Rd, Chamblee, GA 30341, USA","https://maps.google.com/?cid=8094811473176637868","(770) 451-2038"
"ChIJB92Dip8J9YgRE1tCKtr3oQE","30341","church","Chamblee First United Methodist Church","33.9110587","-84.3087987","http://www.chambleeumc.org/","4147 Chamblee Dunwoody Rd, Atlanta, GA 30341, USA","https://maps.google.com/?cid=117647581672266515","(770) 457-2525"
"ChIJgVn_vaGn9YgRqmi0LX20cVA","30341","church","Embry Hills United Methodist Church","33.8814175","-84.24737949999999","http://www.embryhillsumc.org/","3304 Henderson Mill Rd, Chamblee, GA 30341, USA","https://maps.google.com/?cid=5796612645133248682","(770) 938-0661"
"ChIJT4rZHYoI9YgRtCsFui8UMds","30341","church","Skyland United Methodist Church","33.8612636","-84.31263199999999","http://skylandumc.org/","1850 Skyland Terrace NE, Atlanta, GA 30319, USA","https://maps.google.com/?cid=15794427563381959604","(404) 634-6209"
"ChIJuTHgDukI9YgRE_x-cd-Ibgg","30341","church","Brookhaven Christian Church","33.874622","-84.3301199","http://www.brookhavenchristian.org/","4500 Peachtree Rd, Atlanta, GA 30319, USA","https://maps.google.com/?cid=607573493004827667","(404) 237-3030"
"ChIJO2NlOC0I9YgRt5jnv7gfIuo","30341","church","Northwoods United Methodist Church","33.88576439999999","-84.27908649999999","http://northwoods-umc.org/","2635 Fairlane Dr, Doraville, GA 30340, USA","https://maps.google.com/?cid=16871082032437369015","(770) 457-4576"
"ChIJ_4tbc-YI9YgRbWyTzQzO10Y","30341","church","St Martin In the Fields","33.8796535","-84.3279287","http://www.stmartins.org/","3110 Ashford Dunwoody Rd NE, Atlanta, GA 30319, USA","https://maps.google.com/?cid=5104775257031666797","(404) 261-4292"
"ChIJXTGfC-oI9YgR6TBzKwHgB-E","30341","church","First Baptist Church","33.87164509999999","-84.33291609999999","http://www.fba.org/","4400 Peachtree Rd, Atlanta, GA 30319, USA","https://maps.google.com/?cid=16215175278999318761","(770) 234-8300"
"ChIJX0mYCf0A9YgROJDHVEjIFno","30341","church","First Baptist Church Atlanta","33.9220966","-84.2988769","http://www.fba.org/","4400 N Peachtree Rd, Atlanta, GA 30338, USA","https://maps.google.com/?cid=8797439135100407864","(770) 234-8300"
"ChIJRTBL-uAI9YgR1vPZDJSIL9o","30341","church","Our Lady of the Assumption Catholic Church","33.88614980000001","-84.3309842","http://www.olachurch.org/","1350 Hearst Dr NE, Atlanta, GA 30319, USA","https://maps.google.com/?cid=15721934993625838550","(404) 261-7181"
"ChIJXdyTIOUJ9YgRHWgJVZXToEE","30341","mosque","Islamic Community Center of Atlanta","33.9190318","-84.2780326","http://www.iccatlanta.org/resources/","2674 Woodwin Rd, Doraville, GA 30360, USA","https://maps.google.com/?cid=4729012247069288477","(770) 454-8152"
"ChIJ5ZlgHH-n9YgRW0EhhJ_VRd8","30341","place_of_worship","InTouch Ministries","33.88856920000001","-84.266267","http://www.intouch.org/","3836 Dekalb Technology Pkwy, Doraville, GA 30340, USA","https://maps.google.com/?cid=16088500124944253275","(770) 220-1700"
"ChIJvQeXGICn9YgRDf5NEbHqjK0","30340","church","The Solid Rock of Atlanta","33.8861165","-84.26875079999999","http://solidrockofatlanta.org/","3740 Dekalb Technology Pkwy, Atlanta, GA 30340, USA","https://maps.google.com/?cid=12505628311521459725","(404) 697-5215"
"ChIJOxc5TCsI9YgREXG-IPS1LF4","30340","church","Church of the New Covenant Church","33.8868647","-84.27466369999999","http://www.cncdoraville.org/","3330 Chestnut Dr, Doraville, GA 30340, USA","https://maps.google.com/?cid=6785998798666494225","(770) 455-8117"
"ChIJV86B1sQJ9YgRQGlSIDX0_wY","30340","church","Whirlwind Missions Inc","33.9003156","-84.2813147","http://www.whirlwindmissions.org/","5935 New Peachtree Rd, Doraville, GA 30340, USA","https://maps.google.com/?cid=504390192301500736","(770) 490-1668"
"ChIJtWW_B6un9YgRopDsvnL-9kw","30340","church","Northeast Baptist Church","33.881362","-84.23106899999999","http://www.nebcatlanta.com/","4046 Chamblee Tucker Rd, Atlanta, GA 30340, USA","https://maps.google.com/?cid=5545899759936245922","(770) 938-8333"
"ChIJVy0RTCsI9YgRpx9A4pGPXTc","30340","place_of_worship","Recorder society","33.8868018","-84.27465720000001","","3330 Chestnut Dr, Doraville, GA 30340, USA","https://maps.google.com/?cid=3989502701649010599",""
"ChIJuckmA2Gn9YgRd_X70PFbSy8","30340","church","Atlanta Presbyterian Church","33.9057419","-84.26678690000001","","3872 McElroy Rd, Atlanta, GA 30340, USA","https://maps.google.com/?cid=3407918637187331447","(770) 454-7600"
"ChIJlSjfodsJ9YgRrWN4gIFHotk","30340","church","The Salvation Army Atlanta International Corps","33.9021302","-84.2778223","http://salvationarmyatlanta.org/international/","3771 Central Ave, Doraville, GA 30340, USA","https://maps.google.com/?cid=15682175473989215149","(404) 486-2820"
"ChIJ5ZlgHH-n9YgRwAYPTIwemDI","30340","point_of_interest","En Contacto","33.88862729999999","-84.2662546","http://www.encontacto.org/","3836 Dekalb Technology Pkwy, Atlanta, GA 30340, USA","https://maps.google.com/?cid=3645697486276724416","(770) 451-1001"
"ChIJmde2NHKn9YgRP6d9__B5Hq8","30340","church","Ministerios La Primicia","33.89421","-84.253168","","4187 Northeast Expy, Atlanta, GA 30340, USA","https://maps.google.com/?cid=12618657281924245311","(404) 259-2677"
"ChIJUwLI_5-n9YgRnILGmq958dE","30340","church","Marktab Ministries","33.8856","-84.24849999999999","","3577 Chamblee Tucker # A-228 , Atlanta, GA 30341, GA 30340, USA","https://maps.google.com/?cid=15128006418437145244","(770) 414-2916"
"ChIJWelhFxGn9YgRAWb7fg2CSH0","30340","church","Iglesia Lluiva De Amor","33.9003506","-84.2417133","","3951 Pleasantdale Rd, Atlanta, GA 30340, United States","https://maps.google.com/?cid=9027608447540749825",""
"ChIJ5Tz_H12n9YgRWNKGIc9DAbE","30340","church","Young Nak Presbyterian Church","33.9111959","-84.26080999999999","","3100 Oakcliff Rd, Atlanta, GA 30340, USA","https://maps.google.com/?cid=12754550176589730392","(770) 936-2800"
"ChIJZfUfotkJ9YgRPhZ3P_Hw_zM","30340","church","Iglesia Capn","33.90034899999999","-84.2738847","","2000 Clearview Ave, Doraville, GA 30340, USA","https://maps.google.com/?cid=3746978333938095678",""
"ChIJ7Zwi3gin9YgRj2-Z3eKpgRc","30340","church","Tucker Times","33.8895222","-84.2408396","http://hometownnewsatlanta.com/","3638 Summitridge Dr, Atlanta, GA 30340, USA","https://maps.google.com/?cid=1693821726713540495","(770) 939-5888"
"ChIJRUlzmAqn9YgRqVOGYDjXXV0","30340","church","Doraville- Chamblee Hispanic Seventh-day Adventist Church","33.8861438","-84.2476044","http://chambleespanish22.adventistchurchconnect.org/","3295 Northcrest Rd, Atlanta, GA 30340, USA","https://maps.google.com/?cid=6727770055498945449","(770) 414-4787"
"ChIJzdvUJ9EJ9YgRRE1DhJA7OBY","30340","church","Iglesia De Cristo En Doraville","33.8948086","-84.2761036","","3545 Chestnut Dr, Doraville, GA 30340, USA","https://maps.google.com/?cid=1601095159410543940","(770) 457-4400"
"ChIJ3dJ0684J9YgRN7KsczoDwdg","30340","church","Iglesia Luterana Sagrada Familia","33.8943926","-84.284249","","5200, Doraville, GA 30340, USA","https://maps.google.com/?cid=15618768532281274935",""
"ChIJRUlzmAqn9YgRbW1Afm-0sHI","30340","church","Iglesia Adventista Del Septimo","33.886185","-84.24761099999999","","3295 Northcrest Rd, Atlanta, GA 30340, USA","https://maps.google.com/?cid=8264303707177381229","(770) 414-4787"
"ChIJ90gGI6qn9YgRiyD7rePGJ6s","30340","church","Redeemer Orthodox Presbyterian Church, Atlanta GA","33.88508499999999","-84.2340042","http://ropc.org/","3930 Chamblee Tucker Rd, Doraville, GA 30340, USA","https://maps.google.com/?cid=12333044785756184715","(770) 938-7272"
"ChIJfzo0JMUJ9YgRFhyhqFk9K3w","30340","church","First Baptist Church","33.9003233","-84.2813161","http://fbcdoraville.com/","5935 New Peachtree Rd, Atlanta, GA 30340, USA","https://maps.google.com/?cid=8947312539992136726","(770) 457-0244"
"ChIJlZadApW49YgRg0hoDQLVdEA","30017","church","Word Aflame Tabernacle","33.8910355","-83.9510562","http://wordaflameupc.com/","2255 Loganville Hwy, Grayson, GA 30017, USA","https://maps.google.com/?cid=4644571320517412995","(678) 376-5678"
"ChIJpQI3H9q49YgRcfeLg0ryiV0","30017","church","Jehovah's Witnesses","33.90432699999999","-83.968835","","540 Hillside Dr SW, Grayson, GA 30017, USA","https://maps.google.com/?cid=6740184719185147761","(770) 963-6167"
"ChIJybx38-649YgR940IWJMiXEo","30017","church","Chestnut Grove Baptist Church","33.8861289","-83.960031","http://chestnutgrove.org/","2299 Rosebud Rd, Grayson, GA 30017, USA","https://maps.google.com/?cid=5358195672896540151","(770) 963-7051"
"ChIJVWRQb-W49YgRyepxR64yOX0","30017","church","Faith Community Church","33.88565030000001","-83.9648387","http://www.faithchurchgrayson.org/","800 Grayson Pkwy, Grayson, GA 30017, USA","https://maps.google.com/?cid=9023299052517845705","(770) 995-7020"
"ChIJlZadApW49YgRIgf_j22q4iQ","30017","church","Pentecostal Church Grayson","33.8910333","-83.95103859999999","http://www.wordaflameupc.com/","2255 Loganville Hwy, Grayson, GA 30017, USA","https://maps.google.com/?cid=2657874117646026530","(770) 891-7065"
"ChIJq36JWVC49YgRII1uIXSfKsQ","30017","church","Community of Grace","33.86191549999999","-83.9683519","http://www.transformlives.org/","1200 Athens Hwy, Grayson, GA 30017, USA","https://maps.google.com/?cid=14135285701581638944","(770) 972-4304"
"ChIJPUiu1-S49YgR359TF26V5O0","30017","church","Highlands Presbyterian Church","33.8842758","-83.96709","http://www.highlandsarp.org/","830 Grayson Pkwy, Grayson, GA 30017, USA","https://maps.google.com/?cid=17141990381749247967","(770) 978-3001"
"ChIJmwOKLMC49YgRm9LT6FkRuAE","30017","church","Word of Deliverance Church","33.88843800000001","-83.95855","","Grayson, GA 30017, USA","https://maps.google.com/?cid=123868067608646299","(866) 649-5849"
"ChIJ3Y-gHMO49YgRHsdD8DGaDcU","30017","church","Live Free Church","33.8972857","-83.9619278","http://livefreechurch.org/","1911 Grayson Hwy #8-323, Grayson, GA 30017, USA","https://maps.google.com/?cid=14199174739444090654","(678) 442-0487"
"ChIJ94lA8L-49YgR_W2tUBgeBdM","30017","church","First Baptist Church-Grayson","33.8938837","-83.9535686","http://www.fbcgrayson.org/","2142 Loganville Hwy, Grayson, GA 30017, USA","https://maps.google.com/?cid=15205592806667939325","(770) 963-3610"
"ChIJA4A8u-m49YgRdRvHu8dE5nc","30017","place_of_worship","Grayson United Methodist Church","33.89233459999999","-83.96167389999999","http://www.graysonumc.org/","555 Grayson Pkwy, Grayson, GA 30017, USA","https://maps.google.com/?cid=8639668559796444021","(770) 963-2944"
"ChIJFyUkV2S59YgRTxYwol4xnns","30017","church","Mount Zion Baptist Church","33.889379","-84.0106826","http://www.mountzionsnellville.com/","1525 Scenic Hwy S, Snellville, GA 30078, USA","https://maps.google.com/?cid=8907611395503167055","(770) 972-5020"
"ChIJx9iAj2nH9YgRCzTfowRzzoo","30017","church","Anchor Church","33.88998849999999","-83.9167296","http://www.anchorgrayson.org/","451 Ozora Rd, Loganville, GA 30052, USA","https://maps.google.com/?cid=10002058286202827787","(770) 554-2250"
"ChIJXZmNJly49YgR6ydugTHNH4Y","30017","church","Gracepointe Church of Nazarene","33.8656633","-83.9558383","http://www.gracepointe.com/","2900 Rosebud Rd, Loganville, GA 30052, USA","https://maps.google.com/?cid=9664668937868945387","(678) 990-3954"
"ChIJv-DvC9S49YgRSRroVO8zSyc","30017","church","Cornerstone Baptist Church","33.912133","-83.9683718","http://cbchurch.net/","1400 Grayson Hwy, Lawrenceville, GA 30045, USA","https://maps.google.com/?cid=2831413893747186249","(770) 338-2677"
"ChIJfXi1sI649YgRxGg8ymSfIvM","30017","church","Bay Creek Community Church","33.87730320000001","-83.9468906","http://baycreekchurch.org/","480 Cooper Rd, Loganville, GA 30052, USA","https://maps.google.com/?cid=17519740755663153348","(770) 466-9494"
"ChIJyUYbpUa49YgRTLh59tfWGHw","30017","church","Saint Oliver Plunkett Church","33.85455150000001","-83.95935209999999","http://www.stolivers.com/","Loganville, GA 30052, USA","https://maps.google.com/?cid=8942133283185604684",""
"ChIJa-ZzXly49YgRwKQUIKIRC_U","30017","synagogue","Beth Ha'mashiach Messianic","33.8625271","-83.9565659","http://bethhamashiach.com/","2950 Rosebud Rd, Loganville, GA 30052, USA","https://maps.google.com/?cid=17657226152056759488","(678) 639-3377"
"ChIJW6t0QEa49YgREQIqIarj1PA","30017","church","Saint Oliver Plunkett Catholic Church","33.8545953","-83.9611815","http://www.stolivers.com/","3200 Brooks Dr, Snellville, GA 30078, USA","https://maps.google.com/?cid=17353745584005710353","(770) 979-2500"
"ChIJwwgpr3_H9YgRByn2ZY8OE1c","30017","church","Sanctuary Baptist Church","33.872596","-83.92979199999999","http://www.sanctuarybaptist.net/","3064 Oak Grove Rd SW, Loganville, GA 30052, USA","https://maps.google.com/?cid=6274374714910976263","(770) 466-7799"
"ChIJc15IUysP9YgRzRmfXWr6yig","30342","church","Metropolitan Baptist Church","33.8858165","-84.35336459999999","http://www.metropolitanbaptistchurch.org/","4795 Peachtree Dunwoody Rd, Sandy Springs, GA 30342, USA","https://maps.google.com/?cid=2939437041556855245","(404) 256-4216"
"ChIJKTUdgegO9YgRAK4ycoFQ6oc","30342","church","Church Of Scientology Atlanta","33.902929","-84.3780309","http://www.scientology-atlanta.org/","5395 Roswell Rd NE, Atlanta, GA 30342, USA","https://maps.google.com/?cid=9793728856567492096","(770) 394-4414"
"ChIJHcL5mCcP9YgRHTbtjnl_zXs","30342","synagogue","Congregation Beth Tefillah","33.89279490000001","-84.36671609999999","http://www.bethtefillah.org/","5065 High Point Rd NE, Atlanta, GA 30342, USA","https://maps.google.com/?cid=8920926596956501533","(404) 843-2464"
"ChIJl7du42wP9YgRnoCRd88J9gc","30342","church","Buckhead Baptist Church","33.8674881","-84.38186949999999","http://www.buckheadbaptist.org/","4100 Roswell Rd NE, Atlanta, GA 30342, USA","https://maps.google.com/?cid=573656789205221534","(404) 255-5112"
"ChIJVVVVVSEP9YgRelrFy5iVB04","30342","church","Destiny Church","33.8856615","-84.3699767","","Atlanta, GA 30342, USA","https://maps.google.com/?cid=5622627143281629818","(404) 785-7161"
"ChIJ5TyufSwJ9YgR-0bgwaS4Mp0","30342","church","Advent Hope","33.8964174","-84.351438","http://adventhopeatlanta.org","5185 Peachtree Dunwoody Rd, Atlanta, GA 30342, USA","https://maps.google.com/?cid=11327319030557067003","(678) 824-2434"
"ChIJm3ibmSwJ9YgRaICETy8JzQ4","30342","church","Church of the Redeemer","33.8964275","-84.3514555","http://www.redeemeratlanta.org/","5185 Peachtree Dunwoody Rd, Atlanta, GA 30342, USA","https://maps.google.com/?cid=1066518785558872168","(678) 298-1150"
"ChIJ3QAfcmUP9YgR_h8ezZZ2w7U","30342","church","Sardis United Methodist Church","33.8573381","-84.38368849999999","http://sardischurch.com/","3725 Powers Ferry Rd NW, Atlanta, GA 30342, USA","https://maps.google.com/?cid=13097442531382009854","(404) 237-6060"
"ChIJn3nPAGwP9YgRFzGyC62z3OQ","30342","church","Ascension Lutheran Church","33.8637914","-84.38110209999999","http://www.ascension-lcms.com/","4000 Roswell Rd, Atlanta, GA 30342, USA","https://maps.google.com/?cid=16491253491330855191","(404) 255-0224"
"ChIJC0a4izMP9YgR-acy147iIME","30342","church","St James United Methodist Church","33.8747448","-84.35890959999999","http://www.stjamesatlanta.org/","4400 Peachtree Dunwoody Rd, Atlanta, GA 30342, USA","https://maps.google.com/?cid=13916371951698487289","(404) 261-3121"
"ChIJZRYu-ewO9YgRQisTf6Vzmc8","30342","place_of_worship","Centro Catolico Del Espiritu","33.9115857","-84.38275109999999","http://www.hsccatl.com/d_CatholicCenter.aspx","120 Northwood Dr, Atlanta, GA 30342, USA","https://maps.google.com/?cid=14959114791926573890","(404) 303-9927"
"ChIJUe96oicP9YgRjENueVnYtu8","30342","church","Church of the Atonement","33.8898525","-84.3666374","","4945 High Point Rd NE, Atlanta, GA 30342, USA","https://maps.google.com/?cid=17273231299627074444","(404) 252-3324"
"ChIJj9MMG18P9YgRD5vuoDuaYeI","30342","church","Buckhead Church","33.8489138","-84.37210809999999","http://www.buckheadchurch.org/","3336 Peachtree Rd NE, Atlanta, GA 30326, USA","https://maps.google.com/?cid=16312488906206386959","(404) 814-7000"
"ChIJvTHRihYP9YgRa3do0j9nhko","30342","church","Jehovah's Witnesses","33.8762649","-84.37800299999999","","258 W Wieuca Rd NE, Atlanta, GA 30342, USA","https://maps.google.com/?cid=5370093129496557419","(404) 255-0030"
"ChIJr4fw0FMP9YgRT9g8NKxITR8","30342","church","Wieuca Road Baptist Church","33.8552871","-84.3599045","http://wieuca.org/","3626 Peachtree Rd NE, Atlanta, GA 30326, USA","https://maps.google.com/?cid=2255538892830464079","(404) 814-4460"
"ChIJy_flimIP9YgRjhWjGZHZNO8","30342","church","Peachtree Presbyterian Church","33.847478","-84.3831457","http://www.peachtreepres.org/","3434 Roswell Rd NE, Atlanta, GA 30305, USA","https://maps.google.com/?cid=17236640891077334414","(404) 842-5800"
"ChIJVRIty1IP9YgReTYjbRDWzFY","30342","church","Peachtree Road Lutheran Church","33.855144","-84.35420599999999","http://www.peachtreelutheran.org/","3686 Peachtree Rd NE, Atlanta, GA 30319, USA","https://maps.google.com/?cid=6254609348549621369","(404) 233-7031"
"ChIJJ-MrOK4P9YgRBDFkEbz_fq4","30342","church","St John United Methodist Church","33.8844819","-84.4057895","http://stjohnatlanta.org/","550 Mt Paran Rd NW, Atlanta, GA 30327, USA","https://maps.google.com/?cid=12573768392875716868","(404) 255-1384"
"ChIJ6fZk77sP9YgRzig6Xrpaar4","30342","church","Holy Spirit Catholic Church","33.8772684","-84.41138749999999","http://www.hsccatl.com/","4465 Northside Dr NW, Atlanta, GA 30327, USA","https://maps.google.com/?cid=13720878971228924110","(404) 252-4513"
"ChIJ48zSUIsF9YgRI7tWNLv7zTQ","30342","church","Peachtree Road Church","33.8424867","-84.37621849999999","https://www.prumc.org/","Peachtree Rd, Atlanta, GA 30305, USA","https://maps.google.com/?cid=3804974041653492515","(404) 266-2373"
"ChIJ-4x5clKo9YgRwTwD1pehOK4","30021","church","Omar American Comm Center Inc","33.80019659999999","-84.23749959999999","","436 N Indian Creek Dr, Clarkston, GA 30021, USA","https://maps.google.com/?cid=12553961634797927617","(404) 296-1308"
"ChIJJ2lSOFuo9YgRzJi1-GhPmwI","30021","church","Clarkston First Baptist Church","33.81122169999999","-84.2377506","http://www.clarkstonfbc.org/","3999 Church St, Clarkston, GA 30021, USA","https://maps.google.com/?cid=187831121733851340","(404) 292-5686"
"ChIJ9ZUa3Eqo9YgR0UXqi9GcR9w","30021","place_of_worship","Global Frontier Missions","33.7976311","-84.24682030000001","http://www.globalfrontiermissions.org/","775 Northern Ave, Clarkston, GA 30021, USA","https://maps.google.com/?cid=15872827835500086737","(770) 676-2851"
"ChIJAw8LQUWo9YgRZCuhQmkJffM","30021","church","Clarkston United Methodist Church","33.8084545","-84.2394324","http://www.umcclarkston.com/","3919 Church St, Clarkston, GA 30021, USA","https://maps.google.com/?cid=17545190070999395172","(404) 296-5678"
"ChIJS59-3UGo9YgR8sOE-bTIPWY","30021","church","Debre Bisrat St Gabriel","33.8181563","-84.2449898","http://atlantagabriel.org/","3518 Clarkston Industrial Blvd, Clarkston, GA 30021, USA","https://maps.google.com/?cid=7367265245053895666","(404) 508-1330"
"ChIJaUAbDEWo9YgRICjnxQWXuic","30021","church","Christ Community AME Church","33.809085","-84.2406759","http://www.christcommunityclarkston.com/","4154 E Ponce de Leon Ave, Clarkston, GA 30021, USA","https://maps.google.com/?cid=2862766564198262816","(404) 297-7011"
"ChIJWZr_AFKo9YgRvbuhMbSjWCE","30021","mosque","Al Masjid Momineen of Stone Mt","33.8015299","-84.23819379999999","http://www.masjidalmomineen.com/","851 N Indian Creek Dr, Clarkston, GA 30021, USA","https://maps.google.com/?cid=2402850395524283325","(404) 294-4058"
"ChIJ5_w21VSo9YgRVZEFTjXrzqA","30021","church","Of the Calling All Women","33.7959943","-84.23051439999999","","3938 Memorial College Ave, Clarkston, GA 30021, USA","https://maps.google.com/?cid=11587457505445646677","(678) 949-9152"
"ChIJcf5dQVuo9YgR4EH3xmvd69g","30021","church","Clarkston First Baptist","33.8116585","-84.2376168","","4007 Church St, Clarkston, GA 30021, USA","https://maps.google.com/?cid=15630830386688770528","(404) 343-2492"
"ChIJ8RNfZkWo9YgR4bmZUsFbOfA","30021","church","Clarkston International Bible","33.8077857","-84.2397988","http://www.cibc-sbc.org/","3895 Church St, Clarkston, GA 30021, USA","https://maps.google.com/?cid=17309967528647834081","(404) 296-6483"
"ChIJgeUp8q6p9YgRAuPNKYZaS04","30021","beauty_salon","Gallery of Praise Beauty Salon","33.7885996","-84.23533690000001","","467 N Indian Creek Dr, Clarkston, GA 30021, USA","https://maps.google.com/?cid=5641702490485154562","(404) 296-1477"
"ChIJnRc2kESo9YgRIcCfS1mQFBc","30021","church","St Michaels Church","33.81204","-84.24032919999999","","1146 Smith St, Clarkston, GA 30021, USA","https://maps.google.com/?cid=1663112875601805345","(404) 296-1911"
"ChIJ-3wcj_6o9YgRqv_2TZ_8rRw","30021","church","The Universal Church","33.79868500000001","-84.223415","http://www.universalusa.org/","5152 Memorial Dr #1404, Stone Mountain, GA 30083, USA","https://maps.google.com/?cid=2066585565170958250","(201) 612-8800"
"ChIJPdNCbfyo9YgRAcVz7lYAWmI","30021","church","The Universal Church","33.80015899999999","-84.22121899999999","","5302 Memorial Dr #1404, Stone Mountain, GA 30083, USA","https://maps.google.com/?cid=7086977336988648705","(470) 575-5222"
"ChIJ10LfLO6o9YgRWzdAAX0VSIM","30021","church","Atlanta Taiwanese Presbyterian","33.80911200000001","-84.216849","http://atpc.org/","1039 Rays Rd, Stone Mountain, GA 30083, USA","https://maps.google.com/?cid=9459834643927807835","(404) 297-6656"
"ChIJmQReACKo9YgRw2q1KR-F_2Y","30021","church","Decatur United Church of Christ","33.81952799999999","-84.264606","http://www.decaturucc.org/","2495 Lawrenceville Hwy, Decatur, GA 30033, USA","https://maps.google.com/?cid=7421797079820102339","(404) 373-2933"
"ChIJUQIQSnuo9YgRPO71WKs67m8","30021","church","Northlake Church of Christ","33.8293031","-84.235472","http://www.northlake.org/","1625 Cooledge Rd, Tucker, GA 30084, USA","https://maps.google.com/?cid=8065448490273467964","(770) 414-8717"
"ChIJ78Ia2Pyo9YgR3rLtp3YwF50","30021","place_of_worship","St. Timothy United Methodist Church","33.7987923","-84.2180558","http://www.sttimumc.org/","5365 Memorial Dr, Stone Mountain, GA 30083, USA","https://maps.google.com/?cid=11319569474600678110","(404) 292-5969"
"ChIJocuEzHOo9YgRz9VfQNKb0i0","30021","church","Lawrenceville Road United Methodist Church","33.8334277","-84.2446956","http://www.lrumc.com/","3142 Lawrenceville Hwy, Tucker, GA 30084, USA","https://maps.google.com/?cid=3301872804141454799","(770) 939-3717"
"ChIJZz4gf24I9YgRbDharSAsuXA","30021","church","The Gathering Place Atlanta","33.85803799999999","-84.295177","http://glbtchurch.com/","2700 Northeast Expy #100, Atlanta, GA 30345, USA","https://maps.google.com/?cid=8122571921798346860","(404) 815-0007"
"ChIJZz4gf24I9YgRbDharSAsuXA","30345","church","The Gathering Place Atlanta","33.85803799999999","-84.295177","http://glbtchurch.com/","2700 Northeast Expy #100, Atlanta, GA 30345, USA","https://maps.google.com/?cid=8122571921798346860","(404) 815-0007"
"ChIJDSJLkhAI9YgRvfGpDh77uXc","30345","church","Shallowford Presbyterian Church","33.85753260000001","-84.28138059999999","http://www.shallowford.org/","2375 Shallowford Rd, Atlanta, GA 30345, USA","https://maps.google.com/?cid=8627202667718504893","(404) 321-1844"
"ChIJxWDoy38I9YgR5rcvTQfrjOE","30345","church","United Methodist Center","33.84650500000001","-84.31106679999999","http://www.ngumc.org/","1700 Century Cir NE, Atlanta, GA 30345, USA","https://maps.google.com/?cid=16252623571865548774","(678) 533-1399"
"ChIJR3FRYxAI9YgRi_8F40y1SaI","30345","church","Church In Atlanta","33.8563688","-84.2809833","http://churchinatlanta.org/","2345 Shallowford Rd, Atlanta, GA 30345, USA","https://maps.google.com/?cid=11694077249275166603","(404) 325-2994"
"ChIJVcb0dRUI9YgRrn8ow0oMpEU","30345","place_of_worship","Dream Center","33.8641036","-84.2884588","","2895-2899 NE 30345, Patterson Way N E, Atlanta, GA 30312, USA","https://maps.google.com/?cid=5018149400038899630",""
"ChIJtVEb8GAI9YgR_RaO_Lt3ODc","30345","church","McElroy Church","33.8641321","-84.30886049999999","","Atlanta, GA 30345, USA","https://maps.google.com/?cid=3979061920061593341",""
"ChIJlYz1--an9YgRCFZXK7Gg47M","30345","church","Joy of Faith Christian Church","33.84920710000001","-84.2518249","","2191 Northlake Cir NE # 11, Atlanta, GA 30345, USA","https://maps.google.com/?cid=12962380835299218952","(678) 476-1010"
"ChIJDSJLkhAI9YgRBIpY3GYYlIY","30345","church","International Church Inc","33.857434","-84.28162900000001","http://www.internationalchurch.cc/","2375 Shallowford Rd, Atlanta, GA 30345, USA","https://maps.google.com/?cid=9697402727698041348","(404) 321-3392"
"ChIJjyWVmBoI9YgRgIPNaX4qF2E","30345","church","Briarcliff United Methodist Church","33.8552372","-84.280068","http://www.briarcliffumc.com/","4105 Briarcliff Rd NE, Atlanta, GA 30345, USA","https://maps.google.com/?cid=6996107268572676992","(404) 321-3854"
"ChIJr-9Cp2EI9YgRDWDq48KCodM","30345","church","Clairmont Baptist Church","33.8625711","-84.3099768","http://clairmontbaptist.com/","3542 Clairmont Rd, Atlanta, GA 30319, USA","https://maps.google.com/?cid=15249613586812264461","(404) 636-1406"
"ChIJuRyJbl0I9YgRa0yNZmCAvz8","30345","church","The Universal Church","33.86703780000001","-84.30297329999999","http://www.universalusa.org/","2130 Dresden Dr, Atlanta, GA 30341, USA","https://maps.google.com/?cid=4593531296466947179","(404) 633-2244"
"ChIJjemDDMwH9YgR9NMCrUvebCk","30345","church","Greek Orthodox Metropolis of Atlanta","33.828452","-84.309009","http://atlmetropolis.org/","2480 Clairmont Rd, Atlanta, GA 30329, USA","https://maps.google.com/?cid=2985005069646353396","(404) 634-9345"
"ChIJX3sgQgeo9YgR23Zlw0kv_Ww","30345","church","Briarlake Baptist Church","33.8403021","-84.2643435","http://www.briarlakechurch.org/","3715 Lavista Rd, Decatur, GA 30033, USA","https://maps.google.com/?cid=7853485319061337819","(404) 325-4214"
"ChIJ9ZJtCegH9YgRtqsfkGZ9BWY","30345","church","Oak Grove United Methodist Church","33.8324516","-84.2904977","http://ogumc.org","1722 Oak Grove Rd, Decatur, GA 30033, USA","https://maps.google.com/?cid=7351419846210333622","(404) 636-7558"
"ChIJvdI3vywG9YgRH9f6Gt6QZUw","30345","church","Briarcliff Baptist Church","33.8370076","-84.3138452","http://www.briarcliffbaptist.org/","3039 Briarcliff Rd NE, Atlanta, GA 30329, USA","https://maps.google.com/?cid=5504965403140085535","(404) 633-6103"
"ChIJK0BL29IH9YgRh152GLUVTsE","30345","church","Central Congregational United Church of Christ","33.83397379999999","-84.3131131","http://www.central-ucc.org/","2676 Clairmont Rd, Atlanta, GA 30329, USA","https://maps.google.com/?cid=13929094565047197319","(404) 633-4505"
"ChIJb-V3rOun9YgRdMxGvvksgQw","30345","church","St Bede's Episcopal Church","33.8603983","-84.251267","http://www.stbedes.org/","2601 Henderson Mill Rd NE, Atlanta, GA 30345, USA","https://maps.google.com/?cid=901050851601599604","(770) 938-9797"
"ChIJ42RWgosI9YgRZkUF8evq0V0","30345","church","Drepung Loseling Monastery","33.8637809","-84.31695329999999","http://www.drepung.org/","1781 Dresden Dr NE, Atlanta, GA 30319, USA","https://maps.google.com/?cid=6760442814741693798","(404) 982-0051"
"ChIJG8OG_CQG9YgRdQcHzitL1ww","30345","church","Unitarian Universalist Congregation of Atlanta","33.83580899999999","-84.32558299999999","http://www.uuca.org/","1911 Cliff Valley Way NE, Atlanta, GA 30329, USA","https://maps.google.com/?cid=925290899960170357","(404) 634-5134"
"ChIJpxX_LDAG9YgRX4WavpJRmAE","30345","church","Immaculate Heart of Mary","33.83275699999999","-84.32016089999999","http://www.ihmatlanta.org/","2855 Briarcliff Rd NE, Atlanta, GA 30329, USA","https://maps.google.com/?cid=114931481202820447","(404) 636-1418"
"ChIJkfWyJVYd9YgRSGBeW6N9W5E","30344","church","East Point Church of Christ","33.67228489999999","-84.4453621","http://www.thelordsway.com/eastpointga/","3046 Church St, East Point, GA 30344, USA","https://maps.google.com/?cid=10474103498946273352","(404) 761-0643"
"ChIJC8gPy3Id9YgRJ7v7J1EHBtI","30344","church","Fellowship of Faith Church International","33.6953096","-84.47132689999999","http://www.fofci.com/","2553 Connally Dr, East Point, GA 30344, USA","https://maps.google.com/?cid=15133791642969684775","(404) 349-5300"
"ChIJJ1XgslP99IgR_zmR3Mi4j90","30344","church","Divine Unity Missionary Baptist","33.663179","-84.43483599999999","http://www.divineunitymbc.org/contactus-forms.html","3385 Harrison Rd, East Point, GA 30344, USA","https://maps.google.com/?cid=15965182376885172735","(404) 766-4272"
"ChIJUezBXFEd9YgRnNBB9ErKAUU","30344","church","East Point Presbyterian Church","33.67871979999999","-84.44381709999999","","East Point, GA 30344, USA","https://maps.google.com/?cid=4972477886868082844","(404) 767-4242"
"ChIJ3bjKjEwd9YgR4Y84rjl6xI0","30344","church","Flames of Fire Church","33.6876805","-84.4405373","","2476 Lawrence St, East Point, GA 30344, USA","https://maps.google.com/?cid=10215424242937794529","(404) 763-0300"
"ChIJL29w61Md9YgRtH_AWKZe-0E","30344","church","Fellowship Group Baptist Church","33.678448","-84.44234","http://www.fbceastpoint.org/index.php?option=com_content&view=article&id=12&Itemid=118","2813 E Point St, Atlanta, GA 30344, USA","https://maps.google.com/?cid=4754497900166283188","(404) 762-9451"
"ChIJvUJDkWQd9YgRF9grJQTzfx8","30344","church","Word of Faith Love Center","33.6793249","-84.46811790000001","http://www.woflovecenter.org/","2435 Ben Hill Rd, Atlanta, GA 30344, USA","https://maps.google.com/?cid=2269799936347068439","(404) 762-8286"
"ChIJEUoLpb8C9YgRvfadk4cfal0","30344","church","Impact Church","33.6911116","-84.4194924","http://impactdoingchurchdifferently.org","2323 Sylvan Rd, Atlanta, GA 30344, USA","https://maps.google.com/?cid=6731227260216276669","(404) 577-2826"
"ChIJ4ymEQgsd9YgRSe2zykTPuh0","30344","church","Headland Heights United Methodist","33.696938","-84.475813","http://www.ngumc.info/churches/detail/2232","2147 Dodson Dr, East Point, GA 30344, USA","https://maps.google.com/?cid=2142252467133607241","(404) 344-0144"
"ChIJ2XptxKEC9YgR4cxu-4kd--8","30344","church","East Point Church","33.6744796","-84.4181614","http://epointchurch.org/","2950 Sylvan Rd, East Point, GA 30344, USA","https://maps.google.com/?cid=17292447672685219041","(678) 763-7302"
"ChIJFwWDzU4d9YgRMnOZml4_JcQ","30344","church","Gospel of the World International Church","33.688456","-84.445458","","1732 Connally Dr, Atlanta, GA 30344, USA","https://maps.google.com/?cid=14133772681125393202","(404) 209-7555"
"ChIJmybjolEd9YgRHy92ROpNqCA","30344","church","East Point Church of the Nazarene","33.680582","-84.44487500000001","http://www.epconazarene.org/","2736 Cheney St, Atlanta, GA 30344, USA","https://maps.google.com/?cid=2353216473867366175","(404) 762-6417"
"ChIJ6y_3OUId9YgReHXDf1CxkaM","30344","church","Resurrected Life Christian Fellowship","33.6884457","-84.4574387","http://www.rlcfm.com/","2463 Delowe Dr, East Point, GA 30344, USA","https://maps.google.com/?cid=11786396659104314744","(678) 558-2315"
"ChIJL29w61Md9YgRpJSQMSEGGtI","30344","church","First Baptist Church","33.67844189999999","-84.4424281","http://www.fbceastpoint.org/","East Point, GA 30344, USA","https://maps.google.com/?cid=15139419836994589860","(404) 766-3601"
"ChIJb5W200cd9YgRGOlYSWQzYKY","30344","church","East Point Church of God","33.691845","-84.44923899999999","","1857 Connally Dr, East Point, GA 30344, USA","https://maps.google.com/?cid=11988638713880570136","(404) 761-2295"
"ChIJ_6X-cq0C9YgRPRWE7kVkjZw","30344","church","Holy Trinity Church-God-Christ","33.6814015","-84.436238","","1445 Fulton Ave, East Point, GA 30344, USA","https://maps.google.com/?cid=11280782893150115133","(404) 763-3311"
"ChIJA8Jol00d9YgRuuTN5rsQXf8","30344","church","East Point First Mallalieu United Methodist Church","33.6830801","-84.4423084","http://epfmumc.org/","East Point, GA 30344, USA","https://maps.google.com/?cid=18400882051722896570","(404) 761-3183"
"ChIJzzkbfEAd9YgRp1So0LR0Eog","30344","church","Connally Drive Baptist Church","33.69435499999999","-84.45693","","2090 Connally Dr, East Point, GA 30344, USA","https://maps.google.com/?cid=9805027658682619047","(404) 766-2311"
"ChIJk0IZ7qUC9YgRw8iykyB2Muc","30344","church","First Apostolic Church","33.6776221","-84.42718170000001","","2818 Norman Berry Dr, East Point, GA 30344, USA","https://maps.google.com/?cid=16659507853885884611","(404) 767-3692"
"ChIJa2FIIqwC9YgRDarepLtl6BI","30344","church","New Horizons Church of God IN Christ","33.67836260000001","-84.4330349","http://www.newhorizoncogic.com/about.html","2822 Randall St, Atlanta, GA 30344, USA","https://maps.google.com/?cid=1362450743878920717","(404) 762-0054"
"ChIJ8xSLDuQL9YgRt3EOwdmxS5Y","30346","church","Dunwoody Baptist Church","33.9413315","-84.33900199999999","http://www.dbc.org/","1445 Mt Vernon Rd, Dunwoody, GA 30338, USA","https://maps.google.com/?cid=10829945277747458487","(770) 280-1200"
"ChIJL50OqNkL9YgRYJuXf1xDrx0","30346","church","Calvary Church","33.936795","-84.324265","http://www.calvaryatlanta.com/","5067 Chamblee Dunwoody Rd, Dunwoody, GA 30338, USA","https://maps.google.com/?cid=2139002412580969312","(770) 393-2197"
"ChIJd7lgetkL9YgR3k5EbCTbIik","30346","church","Atlanta North SDA Church","33.9385666","-84.3259695","http://www.atlantanorthchurch.com/","5123 Chamblee Dunwoody Rd, Dunwoody, GA 30338, USA","https://maps.google.com/?cid=2964172454244929246","(770) 399-6884"
"ChIJtR0Kn-gL9YgR5eP1IvL6PYA","30346","church","Dunwoody United Methodist Church","33.9456308","-84.33648719999999","http://www.dunwoodyumc.org/","1548 Mt Vernon Rd, Dunwoody, GA 30338, USA","https://maps.google.com/?cid=9240817928309695461","(770) 394-0675"
"ChIJv4umjpcO9YgRuAhJpRCJrsY","30346","synagogue","Congregation B'nai Torah","33.9292647","-84.36304629999999","http://www.bnaitorah.org/","700 Mount Vernon Hwy NE, Atlanta, GA 30328, USA","https://maps.google.com/?cid=14316530970042894520","(404) 257-0537"
"ChIJ__Mh6MIL9YgR2CyKiUA7w2Y","30346","mosque","Masjid Uthman (Dunwoody Community Center)","33.9213453","-84.31022809999999","http://masjiduthmanatlanta.org/","1 Dunwoody Park S #250, Dunwoody, GA 30338, USA","https://maps.google.com/?cid=7404827360698707160","(678) 871-7786"
"ChIJk6MPM6MO9YgR809qiWmj0iA","30346","church","Mount Vernon Presbyterian Church","33.9241479","-84.37166719999999","http://www.mvpchurch.org/","471 Mt Vernon Hwy, Atlanta, GA 30328, USA","https://maps.google.com/?cid=2365132427995271155","(404) 255-2211"
"ChIJm3ibmSwJ9YgRaICETy8JzQ4","30346","church","Church of the Redeemer","33.8964275","-84.3514555","http://www.redeemeratlanta.org/","5185 Peachtree Dunwoody Rd, Atlanta, GA 30342, USA","https://maps.google.com/?cid=1066518785558872168","(678) 298-1150"
"ChIJB92Dip8J9YgRE1tCKtr3oQE","30346","church","Chamblee First United Methodist Church","33.9110587","-84.3087987","http://www.chambleeumc.org/","4147 Chamblee Dunwoody Rd, Atlanta, GA 30341, USA","https://maps.google.com/?cid=117647581672266515","(770) 457-2525"
"ChIJ3XnJxMgL9YgRvK_8Ihf0uKA","30346","church","Saint Luke's Presbyterian Church","33.95101969999999","-84.320634","http://www.slpres.org/","1978 Mt Vernon Rd, Dunwoody, GA 30338, USA","https://maps.google.com/?cid=11581274821991641020","(770) 393-1424"
"ChIJIV2YRg4M9YgRFuTsP1IWgkU","30346","church","St. Jude the Apostle Catholic Church","33.9502316","-84.3631101","http://stjudeatlanta.net/","7171 Glenridge Dr, Atlanta, GA 30328, USA","https://maps.google.com/?cid=5008590278105031702","(770) 394-3896"
"ChIJX0mYCf0A9YgROJDHVEjIFno","30346","church","First Baptist Church Atlanta","33.9220966","-84.2988769","http://www.fba.org/","4400 N Peachtree Rd, Atlanta, GA 30338, USA","https://maps.google.com/?cid=8797439135100407864","(770) 234-8300"
"ChIJodN1g5AL9YgRGxwp_X7yqUU","30346","church","North Atlanta Church of Christ","33.967606","-84.3403196","http://www.nacofc.org/","5676 Roberts Dr, Dunwoody, GA 30338, USA","https://maps.google.com/?cid=5019809886908259355","(770) 399-5222"
"ChIJIzHEpToK9YgR2nBipWJuDtU","30346","synagogue","Congregation Ariel","33.9445818","-84.3005331","https://www.congariel.org/","5227 Tilly Mill Rd, Dunwoody, GA 30338, USA","https://maps.google.com/?cid=15352329549713141978","(770) 390-9071"
"ChIJm6vsdP4L9YgRJJtI5lM493Q","30346","church","Sandy Springs United Methodist Church","33.92355229999999","-84.38419519999999","http://www.ssumc.org/","86 Mount Vernon Hwy, Atlanta, GA 30328, USA","https://maps.google.com/?cid=8428267160644131620","(404) 255-1181"
"ChIJcbI1_SMK9YgRTUYHRcJAdPE","30346","place_of_worship","Kingswood United Methodist Church","33.9388527","-84.2955695","https://kingswoodumc.org/","5015 Tilly Mill Rd, Dunwoody, GA 30338, USA","https://maps.google.com/?cid=17398602463565006413","(770) 457-1317"
"ChIJayDv9iAK9YgRYDEeZeIJ58c","30346","church","St Patrick's Episcopal Church","33.9341014","-84.2940546","http://stpat.net/","4755 N Peachtree Rd, Atlanta, GA 30338, USA","https://maps.google.com/?cid=14404492801131557216","(770) 455-6523"
"ChIJM01cqiEK9YgRRe9o06yQyzI","30346","church","St Barnabas Anglican Church","33.9351238","-84.29374989999999","http://stbarnabasatl.org/","4795 N Peachtree Rd, Dunwoody, GA 30338, USA","https://maps.google.com/?cid=3660178194124304197","(770) 457-1103"
"ChIJOxc5TCsI9YgREXG-IPS1LF4","30346","church","Church of the New Covenant Church","33.8868647","-84.27466369999999","http://www.cncdoraville.org/","3330 Chestnut Dr, Doraville, GA 30340, USA","https://maps.google.com/?cid=6785998798666494225","(770) 455-8117"
