"school_id","school_name","school_type","gradeRange","city","address","phone","fax","website","latitude","longitude","overview_url","ratings_url","reviews_url"
"746","Avondale Elementary School","public","PK-5","Avondale-Estates","8 Lakeshore Dr, Avondale Estates, GA  30002","(678) 676-5202","(678) 676-5210","http://www.avondalees.dekalb.k12.ga.us/","33.77341","-84.261604","http://www.greatschools.org/georgia/avondale-estates/746-Avondale-Elementary-School/?s_cid=gsapi","http://www.greatschools.org/school/rating.page?state=GA&id=746&s_cid=gsapi","http://www.greatschools.org/school/parentReviews.page?state=GA&id=746&s_cid=gsapi"
"6486","Dekalb School Of The Arts","public","8-12","Avondale-Estates","1192 Clarendon Ave, Avondale Estates, GA  30002","(678) 676-2502","(678) 676-2510","www.dsa.dekalb.k12.ga.us","33.76055","-84.26829","http://www.greatschools.org/georgia/avondale-estates/6486-Dekalb-School-Of-The-Arts/?s_cid=gsapi","http://www.greatschools.org/school/rating.page?state=GA&id=6486&s_cid=gsapi","http://www.greatschools.org/school/parentReviews.page?state=GA&id=6486&s_cid=gsapi"
"8588","Museum School Avondale Estates","charter","K-5","Avondale-Estates","3191 Covington Hwy, Avondale Estates, GA  30002","(404) 292-9760","","","33.77377","-84.25961","http://www.greatschools.org/georgia/avondale-estates/8588-Museum-School-Avondale-Estates/?s_cid=gsapi","http://www.greatschools.org/school/rating.page?state=GA&id=8588&s_cid=gsapi","http://www.greatschools.org/school/parentReviews.page?state=GA&id=8588&s_cid=gsapi"
"745","Chamblee Charter High School","charter","9-12","Chamblee","3688 Chamblee Dunwoody Rd, Chamblee, GA  30341","(678) 676-6902","(678) 676-6910","http://www.dekalb.k12.ga.us/chambleehs/","33.89781","-84.30733","http://www.greatschools.org/georgia/chamblee/745-Chamblee-Charter-High-School/?s_cid=gsapi","http://www.greatschools.org/school/rating.page?state=GA&id=745&s_cid=gsapi","http://www.greatschools.org/school/parentReviews.page?state=GA&id=745&s_cid=gsapi"
"6225","Chamblee Firs Tumc Kindergarten","private","K","Chamblee","4147 Chamblee Dunwoody Rd, Chamblee, GA  30341","(770) 457-2527","","","33.908886","-84.31006","http://www.greatschools.org/georgia/chamblee/6225-Chamblee-Firs-Tumc-Kindergarten/?s_cid=gsapi","http://www.greatschools.org/school/rating.page?state=GA&id=6225&s_cid=gsapi","http://www.greatschools.org/school/parentReviews.page?state=GA&id=6225&s_cid=gsapi"
"3792","Chamblee Middle School","public","6-8","Chamblee","3601 Sexton Woods Dr, Chamblee, GA  30341","(678) 874-8202","","","33.8968","-84.310974","http://www.greatschools.org/georgia/chamblee/3792-Chamblee-Middle-School/?s_cid=gsapi","http://www.greatschools.org/school/rating.page?state=GA&id=3792&s_cid=gsapi","http://www.greatschools.org/school/parentReviews.page?state=GA&id=3792&s_cid=gsapi"
"4331","Cross and Crown Day School","private","PK-5","Chamblee","4276 Chamblee Dunwoody Road, Chamblee, GA  30341","(770) 458-5274","(770) 458-7087","http://www.ccsga.org","33.914776","-84.315544","http://www.greatschools.org/georgia/chamblee/4331-Cross-And-Crown-Day-School/?s_cid=gsapi","http://www.greatschools.org/school/rating.page?state=GA&id=4331&s_cid=gsapi","http://www.greatschools.org/school/parentReviews.page?state=GA&id=4331&s_cid=gsapi"
"710","Dresden Elementary School","public","PK-5","Chamblee","2449 Dresden Dr, Chamblee, GA  30341","(678) 676-7202","(678) 676-7210","","33.86898","-84.29236","http://www.greatschools.org/georgia/chamblee/710-Dresden-Elementary-School/?s_cid=gsapi","http://www.greatschools.org/school/rating.page?state=GA&id=710&s_cid=gsapi","http://www.greatschools.org/school/parentReviews.page?state=GA&id=710&s_cid=gsapi"
"796","Henderson Middle School","public","6-8","Chamblee","2830 Henderson Mill Rd, Chamblee, GA  30341","(678) 874-2902","(678) 874-2910","","33.867214","-84.25278","http://www.greatschools.org/georgia/chamblee/796-Henderson-Middle-School/?s_cid=gsapi","http://www.greatschools.org/school/rating.page?state=GA&id=796&s_cid=gsapi","http://www.greatschools.org/school/parentReviews.page?state=GA&id=796&s_cid=gsapi"
"740","Huntley Hills Elementary School","public","PK-5","Chamblee","2112 Seaman Circle, Chamblee, GA  30341","(678) 676-7402","(678) 676-7410","","33.91184","-84.3031","http://www.greatschools.org/georgia/chamblee/740-Huntley-Hills-Elementary-School/?s_cid=gsapi","http://www.greatschools.org/school/rating.page?state=GA&id=740&s_cid=gsapi","http://www.greatschools.org/school/parentReviews.page?state=GA&id=740&s_cid=gsapi"
"3240","Warren Technical School","public","n/a","Chamblee","3075 Alton Rd, Chamblee, GA  30341","(678) 676-6502","","","33.87892","-84.26281","http://www.greatschools.org/georgia/chamblee/3240-Warren-Technical-School/?s_cid=gsapi","http://www.greatschools.org/school/rating.page?state=GA&id=3240&s_cid=gsapi","http://www.greatschools.org/school/parentReviews.page?state=GA&id=3240&s_cid=gsapi"
"3018","Atlanta Area School For The Deaf","public","PK-12","Clarkston","890 North Indian Creek Dr, Clarkston, GA  30021","(404) 298-4868","","","33.80256","-84.24012","http://www.greatschools.org/georgia/clarkston/3018-Atlanta-Area-School-For-The-Deaf/?s_cid=gsapi","http://www.greatschools.org/school/rating.page?state=GA&id=3018&s_cid=gsapi","http://www.greatschools.org/school/parentReviews.page?state=GA&id=3018&s_cid=gsapi"
"758","Clarkston High School","public","9-12","Clarkston","618 North Indian Creek Dr, Clarkston, GA  30021","(678) 676-5302","(678) 676-5310","","33.79298","-84.23856","http://www.greatschools.org/georgia/clarkston/758-Clarkston-High-School/?s_cid=gsapi","http://www.greatschools.org/school/rating.page?state=GA&id=758&s_cid=gsapi","http://www.greatschools.org/school/parentReviews.page?state=GA&id=758&s_cid=gsapi"
"2414","Dekalb Alternative Night School","public","9-12","Clarkston","955 North Indian Creek Dr, Clarkston, GA  30021","(678) 676-2876","(678) 676-2878","","33.80575","-84.238884","http://www.greatschools.org/georgia/clarkston/2414-Dekalb-Alternative-Night-School/?s_cid=gsapi","http://www.greatschools.org/school/rating.page?state=GA&id=2414&s_cid=gsapi","http://www.greatschools.org/school/parentReviews.page?state=GA&id=2414&s_cid=gsapi"
"3647","Gateway To College Academy","charter","10-12","Clarkston","555 North Indian Creek Dr, Clarkston, GA  30021","(678) 891-3220","(404) 244-5109","","33.79003","-84.23435","http://www.greatschools.org/georgia/clarkston/3647-Gateway-To-College-Academy/?s_cid=gsapi","http://www.greatschools.org/school/rating.page?state=GA&id=3647&s_cid=gsapi","http://www.greatschools.org/school/parentReviews.page?state=GA&id=3647&s_cid=gsapi"
"786","Indian Creek Elementary School","public","PK-5","Clarkston","724 North Indian Creek Dr, Clarkston, GA  30021","(678) 676-5702","(678) 676-5710","","33.79737","-84.23874","http://www.greatschools.org/georgia/clarkston/786-Indian-Creek-Elementary-School/?s_cid=gsapi","http://www.greatschools.org/school/rating.page?state=GA&id=786&s_cid=gsapi","http://www.greatschools.org/school/parentReviews.page?state=GA&id=786&s_cid=gsapi"
"771","Jolly Elementary School","public","PK-5","Clarkston","1070 Otello Ave, Clarkston, GA  30021","(678) 676-5802","(678) 676-5810","","33.80947","-84.22599","http://www.greatschools.org/georgia/clarkston/771-Jolly-Elementary-School/?s_cid=gsapi","http://www.greatschools.org/school/rating.page?state=GA&id=771&s_cid=gsapi","http://www.greatschools.org/school/parentReviews.page?state=GA&id=771&s_cid=gsapi"
"8675","21st Century STEM Academy","private","K-8","Decatur","1549 Clairmont Road, Decatur, GA  30033","(404) 618-3599","","http://21stcenturystem.academy/","33.799164","-84.30694","http://www.greatschools.org/georgia/decatur/8675-21st-Century-STEM-Academy/?s_cid=gsapi","http://www.greatschools.org/school/rating.page?state=GA&id=8675&s_cid=gsapi","http://www.greatschools.org/school/parentReviews.page?state=GA&id=8675&s_cid=gsapi"
"6217","Academe of the Oaks","private","9-12","Decatur","146 New Street, Decatur, GA  30030","(404) 405-2173","(404) 377-7178","http://www.academeatlanta.org","33.771698","-84.28432","http://www.greatschools.org/georgia/decatur/6217-Academe-Of-The-Oaks/?s_cid=gsapi","http://www.greatschools.org/school/rating.page?state=GA&id=6217&s_cid=gsapi","http://www.greatschools.org/school/parentReviews.page?state=GA&id=6217&s_cid=gsapi"
"2349","All Star Kids Academy","private","K-1","Decatur","4518 Covington Hwy, Decatur, GA  30035","(404) 284-2327","","","33.746346","-84.22018","http://www.greatschools.org/georgia/decatur/2349-All-Star-Kids-Academy/?s_cid=gsapi","http://www.greatschools.org/school/rating.page?state=GA&id=2349&s_cid=gsapi","http://www.greatschools.org/school/parentReviews.page?state=GA&id=2349&s_cid=gsapi"
"1984","Arbor Montessori","private","PK-8","Decatur","2998 Lavista Road, Decatur, GA  30033","(404) 321-9304","","www.ArborMontessori.org","33.82603","-84.28472","http://www.greatschools.org/georgia/decatur/1984-Arbor-Montessori/?s_cid=gsapi","http://www.greatschools.org/school/rating.page?state=GA&id=1984&s_cid=gsapi","http://www.greatschools.org/school/parentReviews.page?state=GA&id=1984&s_cid=gsapi"
"3961","Augustine Preparatory Academy of Atlanta","private","PK-9","Decatur","4650 Flat Shoals Parkway, Decatur, GA  30034","(404) 212-7660","(404) 207-1352","http://www.augustineprep.info","33.686367","-84.2341","http://www.greatschools.org/georgia/decatur/3961-Augustine-Preparatory-Academy-Of-Atlanta/?s_cid=gsapi","http://www.greatschools.org/school/rating.page?state=GA&id=3961&s_cid=gsapi","http://www.greatschools.org/school/parentReviews.page?state=GA&id=3961&s_cid=gsapi"
"1990","Becker Adventist School","private","K-8","Decatur","3561 Covington Hwy, Decatur, GA  30032","(404) 299-1131","","","33.765827","-84.25143","http://www.greatschools.org/georgia/decatur/1990-Becker-Adventist-School/?s_cid=gsapi","http://www.greatschools.org/school/rating.page?state=GA&id=1990&s_cid=gsapi","http://www.greatschools.org/school/parentReviews.page?state=GA&id=1990&s_cid=gsapi"
"702","Bob Mathis Elementary School","public","PK-5","Decatur","3505 Boring Rd, Decatur, GA  30034","(678) 874-5802","(678) 874-5810","","33.68953","-84.2408","http://www.greatschools.org/georgia/decatur/702-Bob-Mathis-Elementary-School/?s_cid=gsapi","http://www.greatschools.org/school/rating.page?state=GA&id=702&s_cid=gsapi","http://www.greatschools.org/school/parentReviews.page?state=GA&id=702&s_cid=gsapi"
"777","Briarlake Elementary School","public","PK-5","Decatur","3590 Lavista Rd, Decatur, GA  30033","(678) 874-2502","(678) 874-2510","http://www.briarlakepta.org/","33.83935","-84.2693","http://www.greatschools.org/georgia/decatur/777-Briarlake-Elementary-School/?s_cid=gsapi","http://www.greatschools.org/school/rating.page?state=GA&id=777&s_cid=gsapi","http://www.greatschools.org/school/parentReviews.page?state=GA&id=777&s_cid=gsapi"
"2025","Cambridge Academy","private","PK-7","Decatur","2780 Flat Shoals Road, Decatur, GA  30034","(404) 241-1321","","","33.708374","-84.300415","http://www.greatschools.org/georgia/decatur/2025-Cambridge-Academy/?s_cid=gsapi","http://www.greatschools.org/school/rating.page?state=GA&id=2025&s_cid=gsapi","http://www.greatschools.org/school/parentReviews.page?state=GA&id=2025&s_cid=gsapi"
"776","Canby Lane Elementary School","public","PK-5","Decatur","4150 Green Hawk Trl, Decatur, GA  30035","(678) 874-0602","(678) 874-0610","","33.7221","-84.220604","http://www.greatschools.org/georgia/decatur/776-Canby-Lane-Elementary-School/?s_cid=gsapi","http://www.greatschools.org/school/rating.page?state=GA&id=776&s_cid=gsapi","http://www.greatschools.org/school/parentReviews.page?state=GA&id=776&s_cid=gsapi"
"2064","Cathedral Academy","private","PK-8","Decatur","4650 Flat Shoals Parkway, Decatur, GA  30034","(404) 326-5132","(404) 244-0912","http://www.cathedralacademy.net","33.683426","-84.233536","http://www.greatschools.org/georgia/decatur/2064-Cathedral-Academy/?s_cid=gsapi","http://www.greatschools.org/school/rating.page?state=GA&id=2064&s_cid=gsapi","http://www.greatschools.org/school/parentReviews.page?state=GA&id=2064&s_cid=gsapi"
"2415","Cedar Grove Middle School","public","6-8","Decatur","2300 Wildcat Rd, Decatur, GA  30034","(678) 874-4202","(678) 874-4210","","33.68786","-84.29313","http://www.greatschools.org/georgia/decatur/2415-Cedar-Grove-Middle-School/?s_cid=gsapi","http://www.greatschools.org/school/rating.page?state=GA&id=2415&s_cid=gsapi","http://www.greatschools.org/school/parentReviews.page?state=GA&id=2415&s_cid=gsapi"
"712","Chapel Hill Elementary School","public","PK-5","Decatur","3536 Radcliffe Blvd, Decatur, GA  30034","(678) 676-8402","(678) 676-8410","","33.67915","-84.2169","http://www.greatschools.org/georgia/decatur/712-Chapel-Hill-Elementary-School/?s_cid=gsapi","http://www.greatschools.org/school/rating.page?state=GA&id=712&s_cid=gsapi","http://www.greatschools.org/school/parentReviews.page?state=GA&id=712&s_cid=gsapi"
"692","Chapel Hill Middle School","public","6-8","Decatur","3535 Dogwood Farm Rd, Decatur, GA  30034","(678) 676-8502","(678) 676-8510","","33.679768","-84.21611","http://www.greatschools.org/georgia/decatur/692-Chapel-Hill-Middle-School/?s_cid=gsapi","http://www.greatschools.org/school/rating.page?state=GA&id=692&s_cid=gsapi","http://www.greatschools.org/school/parentReviews.page?state=GA&id=692&s_cid=gsapi"
"3580","Choice Academy Child Care Center","private","PK-1","Decatur","5440 Covington Highway, Decatur, GA  30035","(770) 323-1266","","","33.7301","-84.1922","http://www.greatschools.org/georgia/decatur/3580-Choice-Academy-Child-Care-Center/?s_cid=gsapi","http://www.greatschools.org/school/rating.page?state=GA&id=3580&s_cid=gsapi","http://www.greatschools.org/school/parentReviews.page?state=GA&id=3580&s_cid=gsapi"
"678","Clairemont Elementary School","public","K-3","Decatur","155 Erie Ave, Decatur, GA  30030","(404) 370-4450","(404) 370-4453","http://www.clairemont.cityschoolsofdecatur.com/","33.78245","-84.29569","http://www.greatschools.org/georgia/decatur/678-Clairemont-Elementary-School/?s_cid=gsapi","http://www.greatschools.org/school/rating.page?state=GA&id=678&s_cid=gsapi","http://www.greatschools.org/school/parentReviews.page?state=GA&id=678&s_cid=gsapi"
"711","Columbia Elementary School","public","PK-5","Decatur","3230 Columbia Woods Dr, Decatur, GA  30032","(678) 874-0702","(678) 874-0710","","33.71999","-84.25846","http://www.greatschools.org/georgia/decatur/711-Columbia-Elementary-School/?s_cid=gsapi","http://www.greatschools.org/school/rating.page?state=GA&id=711&s_cid=gsapi","http://www.greatschools.org/school/parentReviews.page?state=GA&id=711&s_cid=gsapi"
"721","Columbia High School","public","9-12","Decatur","2106 Columbia Dr, Decatur, GA  30032","(678) 874-0802","(678) 874-0810","","33.72782","-84.25005","http://www.greatschools.org/georgia/decatur/721-Columbia-High-School/?s_cid=gsapi","http://www.greatschools.org/school/rating.page?state=GA&id=721&s_cid=gsapi","http://www.greatschools.org/school/parentReviews.page?state=GA&id=721&s_cid=gsapi"
"2589","Columbia Middle School","public","6-8","Decatur","3001 Columbia Dr, Decatur, GA  30034","(678) 875-0502","(678) 875-0510","","33.696674","-84.254395","http://www.greatschools.org/georgia/decatur/2589-Columbia-Middle-School/?s_cid=gsapi","http://www.greatschools.org/school/rating.page?state=GA&id=2589&s_cid=gsapi","http://www.greatschools.org/school/parentReviews.page?state=GA&id=2589&s_cid=gsapi"
"2075","Creative Beginnings","private","PK-2","Decatur","2982 Flat Shoals Road, Decatur, GA  30034","","","","33.70656","-84.29282","http://www.greatschools.org/georgia/decatur/2075-Creative-Beginnings/?s_cid=gsapi","http://www.greatschools.org/school/rating.page?state=GA&id=2075&s_cid=gsapi","http://www.greatschools.org/school/parentReviews.page?state=GA&id=2075&s_cid=gsapi"
"2989","Decatur First Umc Weekday Childrens Ministries","private","K","Decatur","300 East Ponce De Leon Avenue, Decatur, GA  30030","(404) 377-5784","","","33.77667","-84.292206","http://www.greatschools.org/georgia/decatur/2989-Decatur-First-Umc-Weekday-Childrens-Ministries/?s_cid=gsapi","http://www.greatschools.org/school/rating.page?state=GA&id=2989&s_cid=gsapi","http://www.greatschools.org/school/parentReviews.page?state=GA&id=2989&s_cid=gsapi"
"682","Decatur High School","public","9-12","Decatur","310 North Mcdonough St, Decatur, GA  30030","(404) 370-4420","(404) 370-4434","","33.77169","-84.29756","http://www.greatschools.org/georgia/decatur/682-Decatur-High-School/?s_cid=gsapi","http://www.greatschools.org/school/rating.page?state=GA&id=682&s_cid=gsapi","http://www.greatschools.org/school/parentReviews.page?state=GA&id=682&s_cid=gsapi"
"6917","Dekalb Preparatory Academy Charter","charter","K-4","Decatur","1402 Austin Dr, Decatur, GA  30032","(404) 492-5061","","","33.75201","-84.23332","http://www.greatschools.org/georgia/decatur/6917-Dekalb-Preparatory-Academy-Charter/?s_cid=gsapi","http://www.greatschools.org/school/rating.page?state=GA&id=6917&s_cid=gsapi","http://www.greatschools.org/school/parentReviews.page?state=GA&id=6917&s_cid=gsapi"
"6718","Dekalb Regional Youth Detention Center","public","7-11","Decatur","2946 Clifton Springs Rd, Decatur, GA  30034","(404) 244-2183","","","33.69169","-84.27612","http://www.greatschools.org/georgia/decatur/6718-Dekalb-Regional-Youth-Detention-Center/?s_cid=gsapi","http://www.greatschools.org/school/rating.page?state=GA&id=6718&s_cid=gsapi","http://www.greatschools.org/school/parentReviews.page?state=GA&id=6718&s_cid=gsapi"
"2590","Dekalb Transition School","public","6-9","Decatur","2670 Old Wesley Chapel Rd, Decatur, GA  30034","(678) 874-1002","(678) 874-1010","","33.709286","-84.21645","http://www.greatschools.org/georgia/decatur/2590-Dekalb-Transition-School/?s_cid=gsapi","http://www.greatschools.org/school/rating.page?state=GA&id=2590&s_cid=gsapi","http://www.greatschools.org/school/parentReviews.page?state=GA&id=2590&s_cid=gsapi"
"797","Druid Hills Middle School","public","6-8","Decatur","3100 Mount Olive Dr, Decatur, GA  30033","(678) 874-7602","(678) 874-7610","","33.81886","-84.27445","http://www.greatschools.org/georgia/decatur/797-Druid-Hills-Middle-School/?s_cid=gsapi","http://www.greatschools.org/school/rating.page?state=GA&id=797&s_cid=gsapi","http://www.greatschools.org/school/parentReviews.page?state=GA&id=797&s_cid=gsapi"
"675","Fifth Avenue Elementary School","public","4-5","Decatur","101 Fifth Ave, Decatur, GA  30030","(404) 370-4460","(404) 370-4489","http://glennwood.csdecatur.net/","33.75534","-84.30559","http://www.greatschools.org/georgia/decatur/675-Fifth-Avenue-Elementary-School/?s_cid=gsapi","http://www.greatschools.org/school/rating.page?state=GA&id=675&s_cid=gsapi","http://www.greatschools.org/school/parentReviews.page?state=GA&id=675&s_cid=gsapi"
"774","Flat Shoals Elementary School","public","PK-5","Decatur","3226 Flat Shoals Rd, Decatur, GA  30034","(678) 874-4602","(678) 874-4610","http://www.dekalb.k12.ga.us/flatshoals","33.70643","-84.28367","http://www.greatschools.org/georgia/decatur/774-Flat-Shoals-Elementary-School/?s_cid=gsapi","http://www.greatschools.org/school/rating.page?state=GA&id=774&s_cid=gsapi","http://www.greatschools.org/school/parentReviews.page?state=GA&id=774&s_cid=gsapi"
"2134","Friends School Of Atlanta","private","PK-8","Decatur","862 Columbia Drive, Decatur, GA  30030","(404) 373-8746","","friendsschoolatlanta.org","33.761234","-84.27728","http://www.greatschools.org/georgia/decatur/2134-Friends-School-Of-Atlanta/?s_cid=gsapi","http://www.greatschools.org/school/rating.page?state=GA&id=2134&s_cid=gsapi","http://www.greatschools.org/school/parentReviews.page?state=GA&id=2134&s_cid=gsapi"
"2087","Green Pastures Christian School","private","PK-8","Decatur","5455 Flat Shoals Parkway, Decatur, GA  30034","(770) 987-8121","","","33.683575","-84.207146","http://www.greatschools.org/georgia/decatur/2087-Green-Pastures-Christian-School/?s_cid=gsapi","http://www.greatschools.org/school/rating.page?state=GA&id=2087&s_cid=gsapi","http://www.greatschools.org/school/parentReviews.page?state=GA&id=2087&s_cid=gsapi"
"2086","Greenforest Mccalep Christian Academy","private","PK-12","Decatur","3250 Rainbow Drive, Decatur, GA  30034","(404) 486-6737","","","33.711716","-84.25763","http://www.greatschools.org/georgia/decatur/2086-Greenforest-Mccalep-Christian-Academy/?s_cid=gsapi","http://www.greatschools.org/school/rating.page?state=GA&id=2086&s_cid=gsapi","http://www.greatschools.org/school/parentReviews.page?state=GA&id=2086&s_cid=gsapi"
"6750","Hess Academy","private","PK-8","Decatur","611 Medlock Rd, Decatur, GA  30033","(678) 308-6380","","www.hessacademy.com","33.794533","-84.289734","http://www.greatschools.org/georgia/decatur/6750-Hess-Academy/?s_cid=gsapi","http://www.greatschools.org/school/rating.page?state=GA&id=6750&s_cid=gsapi","http://www.greatschools.org/school/parentReviews.page?state=GA&id=6750&s_cid=gsapi"
"2742","International Community School","charter","K-5","Decatur","2418 Wood Trail Ln, Decatur, GA  30033","(404) 499-8969","(404) 499-8968","","33.8028","-84.2901","http://www.greatschools.org/georgia/decatur/2742-International-Community-School/?s_cid=gsapi","http://www.greatschools.org/school/rating.page?state=GA&id=2742&s_cid=gsapi","http://www.greatschools.org/school/parentReviews.page?state=GA&id=2742&s_cid=gsapi"
"754","Kelley Lake Elementary School","public","PK-5","Decatur","2590 Kelly Lake Rd, Decatur, GA  30032","(678) 874-4802","(678) 874-4810","","33.71682","-84.2834","http://www.greatschools.org/georgia/decatur/754-Kelley-Lake-Elementary-School/?s_cid=gsapi","http://www.greatschools.org/school/rating.page?state=GA&id=754&s_cid=gsapi","http://www.greatschools.org/school/parentReviews.page?state=GA&id=754&s_cid=gsapi"
"3565","Kingdom Group","private","PK-8","Decatur","5271 Snapfinger Woods Drive, Decatur, GA  30035","(770) 593-9911","","","33.70867","-84.17398","http://www.greatschools.org/georgia/decatur/3565-Kingdom-Group/?s_cid=gsapi","http://www.greatschools.org/school/rating.page?state=GA&id=3565&s_cid=gsapi","http://www.greatschools.org/school/parentReviews.page?state=GA&id=3565&s_cid=gsapi"
"785","Knollwood Elementary School","public","PK-5","Decatur","3039 Santa Monica Dr, Decatur, GA  30032","(678) 874-1402","(678) 874-1410","","33.74362","-84.26584","http://www.greatschools.org/georgia/decatur/785-Knollwood-Elementary-School/?s_cid=gsapi","http://www.greatschools.org/school/rating.page?state=GA&id=785&s_cid=gsapi","http://www.greatschools.org/school/parentReviews.page?state=GA&id=785&s_cid=gsapi"
"751","Laurel Ridge Elementary School","public","PK-5","Decatur","1215 Balsam Dr, Decatur, GA  30033","(678) 874-6902","(678) 874-6910","http://www.laurelridgees.dekalb.k12.ga.us","33.815353","-84.27611","http://www.greatschools.org/georgia/decatur/751-Laurel-Ridge-Elementary-School/?s_cid=gsapi","http://www.greatschools.org/school/rating.page?state=GA&id=751&s_cid=gsapi","http://www.greatschools.org/school/parentReviews.page?state=GA&id=751&s_cid=gsapi"
"2255","Love & Grace Christian Academy","private","PK-2","Decatur","Po Box 360206, Decatur, GA  30036","(404) 296-7881","","","33.70689","-84.27207","http://www.greatschools.org/georgia/decatur/2255-Love-&-Grace-Christian-Academy/?s_cid=gsapi","http://www.greatschools.org/school/rating.page?state=GA&id=2255&s_cid=gsapi","http://www.greatschools.org/school/parentReviews.page?state=GA&id=2255&s_cid=gsapi"
"2335","Love Thy Children Child Care","private","PK-2","Decatur","4164 Rainbow Drive, Decatur, GA  30034","(404) 288-2350","","","33.707565","-84.22086","http://www.greatschools.org/georgia/decatur/2335-Love-Thy-Children-Child-Care/?s_cid=gsapi","http://www.greatschools.org/school/rating.page?state=GA&id=2335&s_cid=gsapi","http://www.greatschools.org/school/parentReviews.page?state=GA&id=2335&s_cid=gsapi"
"2591","Mary Mcleod Bethune Middle School","public","6-8","Decatur","5200 Covington Hwy, Decatur, GA  30035","(678) 875-0302","(678) 875-0310","","33.73449","-84.20234","http://www.greatschools.org/georgia/decatur/2591-Mary-Mcleod-Bethune-Middle-School/?s_cid=gsapi","http://www.greatschools.org/school/rating.page?state=GA&id=2591&s_cid=gsapi","http://www.greatschools.org/school/parentReviews.page?state=GA&id=2591&s_cid=gsapi"
"784","Mclendon Elementary School","public","PK-5","Decatur","3169 Hollywood Dr, Decatur, GA  30033","(678) 676-5902","(678) 676-5910","http://www.mclendones.dekalb.k12.ga.us/","33.80432","-84.26204","http://www.greatschools.org/georgia/decatur/784-Mclendon-Elementary-School/?s_cid=gsapi","http://www.greatschools.org/school/rating.page?state=GA&id=784&s_cid=gsapi","http://www.greatschools.org/school/parentReviews.page?state=GA&id=784&s_cid=gsapi"
"708","Mcnair Middle School","public","6-8","Decatur","2190 Wallingford Dr, Decatur, GA  30032","(678) 874-5102","(678) 874-5110","","33.7187","-84.29662","http://www.greatschools.org/georgia/decatur/708-Mcnair-Middle-School/?s_cid=gsapi","http://www.greatschools.org/school/rating.page?state=GA&id=708&s_cid=gsapi","http://www.greatschools.org/school/parentReviews.page?state=GA&id=708&s_cid=gsapi"
"794","Miller Grove Middle School","public","6-8","Decatur","2215 Miller Rd, Decatur, GA  30035","(678) 676-8902","(678) 676-8910","","33.72423","-84.18374","http://www.greatschools.org/georgia/decatur/794-Miller-Grove-Middle-School/?s_cid=gsapi","http://www.greatschools.org/school/rating.page?state=GA&id=794&s_cid=gsapi","http://www.greatschools.org/school/parentReviews.page?state=GA&id=794&s_cid=gsapi"
"3546","Miller Preparatory Academy For","private","3-12","Decatur","2135 Shamrock Drive, Decatur, GA  30032","(770) 322-9097","","","33.7275","-84.2578","http://www.greatschools.org/georgia/decatur/3546-Miller-Preparatory-Academy-For/?s_cid=gsapi","http://www.greatschools.org/school/rating.page?state=GA&id=3546&s_cid=gsapi","http://www.greatschools.org/school/parentReviews.page?state=GA&id=3546&s_cid=gsapi"
"2257","Montessori School At Emory","private","n/a","Decatur","3021 North Decatur Road, Decatur, GA  30033","(404) 634-5777","","http://www.montessorischoolsofgeorgia.com/Emory-Area-Campus.html","33.79366","-84.269646","http://www.greatschools.org/georgia/decatur/2257-Montessori-School-At-Emory/?s_cid=gsapi","http://www.greatschools.org/school/rating.page?state=GA&id=2257&s_cid=gsapi","http://www.greatschools.org/school/parentReviews.page?state=GA&id=2257&s_cid=gsapi"
"2413","Narvie Harris Elementary School","public","PK-5","Decatur","3981 Mcgill Dr, Decatur, GA  30034","(678) 676-9202","(678) 676-9210","","33.66652","-84.226395","http://www.greatschools.org/georgia/decatur/2413-Narvie-Harris-Elementary-School/?s_cid=gsapi","http://www.greatschools.org/school/rating.page?state=GA&id=2413&s_cid=gsapi","http://www.greatschools.org/school/parentReviews.page?state=GA&id=2413&s_cid=gsapi"
"6638","New Glennwood Elementary","public","K-3","Decatur","440 East Ponce De Leon Ave, Decatur, GA  30030","(404) 370-4435","","","33.77646","-84.28988","http://www.greatschools.org/georgia/decatur/6638-New-Glennwood-Elementary/?s_cid=gsapi","http://www.greatschools.org/school/rating.page?state=GA&id=6638&s_cid=gsapi","http://www.greatschools.org/school/parentReviews.page?state=GA&id=6638&s_cid=gsapi"
"2739","Oakhurst Elementary School","public","PK-3","Decatur","175 Mead Rd, Decatur, GA  30030","(404) 370-4470","(404) 370-4477","http://www.oakhurst.cityschoolsofdecatur.com/","33.76381","-84.30601","http://www.greatschools.org/georgia/decatur/2739-Oakhurst-Elementary-School/?s_cid=gsapi","http://www.greatschools.org/school/rating.page?state=GA&id=2739&s_cid=gsapi","http://www.greatschools.org/school/parentReviews.page?state=GA&id=2739&s_cid=gsapi"
"3686","Oakview Elementary School","public","PK-5","Decatur","3574 Oakvale Rd, Decatur, GA  30034","(678) 875-1302","(678) 875-1310","","33.68037","-84.268234","http://www.greatschools.org/georgia/decatur/3686-Oakview-Elementary-School/?s_cid=gsapi","http://www.greatschools.org/school/rating.page?state=GA&id=3686&s_cid=gsapi","http://www.greatschools.org/school/parentReviews.page?state=GA&id=3686&s_cid=gsapi"
"768","Peachcrest Elemenrtary","public","PK-5","Decatur","1530 Joy Lane, Decatur, GA  30032","(678) 874-1602","(678) 874-1610","http://www.knollwoodes.dekalb.k12.ga.us/","33.747562","-84.24553","http://www.greatschools.org/georgia/decatur/768-Peachcrest-Elemenrtary/?s_cid=gsapi","http://www.greatschools.org/school/rating.page?state=GA&id=768&s_cid=gsapi","http://www.greatschools.org/school/parentReviews.page?state=GA&id=768&s_cid=gsapi"
"750","Rainbow Elementary School","public","PK-5","Decatur","2801 Kelley Chapel Rd, Decatur, GA  30034","(678) 874-1702","(678) 874-1710","","33.704666","-84.22566","http://www.greatschools.org/georgia/decatur/750-Rainbow-Elementary-School/?s_cid=gsapi","http://www.greatschools.org/school/rating.page?state=GA&id=750&s_cid=gsapi","http://www.greatschools.org/school/parentReviews.page?state=GA&id=750&s_cid=gsapi"
"2016","Rainbow Park Baptist Church School","private","PK-3","Decatur","2941 Columbia Drive, Decatur, GA  30034","(404) 284-6969","","","33.6998","-84.2515","http://www.greatschools.org/georgia/decatur/2016-Rainbow-Park-Baptist-Church-School/?s_cid=gsapi","http://www.greatschools.org/school/rating.page?state=GA&id=2016&s_cid=gsapi","http://www.greatschools.org/school/parentReviews.page?state=GA&id=2016&s_cid=gsapi"
"676","Renfroe Middle School","public","6-8","Decatur","220 West College Ave, Decatur, GA  30030","(404) 370-4440","(404) 370-4449","","33.76778","-84.29928","http://www.greatschools.org/georgia/decatur/676-Renfroe-Middle-School/?s_cid=gsapi","http://www.greatschools.org/school/rating.page?state=GA&id=676&s_cid=gsapi","http://www.greatschools.org/school/parentReviews.page?state=GA&id=676&s_cid=gsapi"
"6363","Ronald E McNair Discover Learning Academy Elementary School","public","PK-5","Decatur","2162 Second Ave, Decatur, GA  30032","(678) 874-3402","","","33.72728","-84.30681","http://www.greatschools.org/georgia/decatur/6363-Ronald-E-McNair-Discover-Learning-Academy-Elementary-School/?s_cid=gsapi","http://www.greatschools.org/school/rating.page?state=GA&id=6363&s_cid=gsapi","http://www.greatschools.org/school/parentReviews.page?state=GA&id=6363&s_cid=gsapi"
"748","Snapfinger Elementary School","public","PK-5","Decatur","1365 Snapfinger Rd, Decatur, GA  30032","(678) 874-1802","(678) 874-1810","","33.73194","-84.24743","http://www.greatschools.org/georgia/decatur/748-Snapfinger-Elementary-School/?s_cid=gsapi","http://www.greatschools.org/school/rating.page?state=GA&id=748&s_cid=gsapi","http://www.greatschools.org/school/parentReviews.page?state=GA&id=748&s_cid=gsapi"
"6662","So Much 2 Learn Home School","private","K-12","Decatur","430 E Ponce de Leon Ave, Decatur, GA  30030","(404) 370-7329","","http://www.somuch2learn.com","33.77558","-84.29086","http://www.greatschools.org/georgia/decatur/6662-So-Much-2-Learn-Home-School/?s_cid=gsapi","http://www.greatschools.org/school/rating.page?state=GA&id=6662&s_cid=gsapi","http://www.greatschools.org/school/parentReviews.page?state=GA&id=6662&s_cid=gsapi"
"2037","Sola Scriptura Lutheran School","private","K-8","Decatur","2999 Flat Shoals Road, Decatur, GA  30034","(404) 243-3624","","","33.7057","-84.2929","http://www.greatschools.org/georgia/decatur/2037-Sola-Scriptura-Lutheran-School/?s_cid=gsapi","http://www.greatschools.org/school/rating.page?state=GA&id=2037&s_cid=gsapi","http://www.greatschools.org/school/parentReviews.page?state=GA&id=2037&s_cid=gsapi"
"733","Southwest Dekalb High School","public","9-12","Decatur","2863 Kelley Chapel Rd, Decatur, GA  30034","(678) 874-1902","(678) 874-1910","","33.70209","-84.22527","http://www.greatschools.org/georgia/decatur/733-Southwest-Dekalb-High-School/?s_cid=gsapi","http://www.greatschools.org/school/rating.page?state=GA&id=733&s_cid=gsapi","http://www.greatschools.org/school/parentReviews.page?state=GA&id=733&s_cid=gsapi"
"1847","St Peter Claver Regional Catholic School","private","PK-8","Decatur","2560 Tilson Road, Decatur, GA  30032","(404) 241-3063","","","33.728176","-84.291916","http://www.greatschools.org/georgia/decatur/1847-St-Peter-Claver-Regional-Catholic-School/?s_cid=gsapi","http://www.greatschools.org/school/rating.page?state=GA&id=1847&s_cid=gsapi","http://www.greatschools.org/school/parentReviews.page?state=GA&id=1847&s_cid=gsapi"
"1848","St. Thomas More School","private","K-8","Decatur","630 W Ponce De Leon Ave, Decatur, GA  30030","(404) 373-8456","(404) 377-8554","www.stmga.org","33.774044","-84.30556","http://www.greatschools.org/georgia/decatur/1848-St.-Thomas-More-School/?s_cid=gsapi","http://www.greatschools.org/school/rating.page?state=GA&id=1848&s_cid=gsapi","http://www.greatschools.org/school/parentReviews.page?state=GA&id=1848&s_cid=gsapi"
"3990","The Community School","private","7-12","Decatur","308 Clairemont Avenue, Decatur, GA  30030","(404) 308-8548","","","33.77895","-84.298035","http://www.greatschools.org/georgia/decatur/3990-The-Community-School/?s_cid=gsapi","http://www.greatschools.org/school/rating.page?state=GA&id=3990&s_cid=gsapi","http://www.greatschools.org/school/parentReviews.page?state=GA&id=3990&s_cid=gsapi"
"6281","The Hirsch Academy","private","n/a","Decatur","705 South Candler Street, Decatur, GA  30030","(404) 378-9706","","","33.76072","-84.29317","http://www.greatschools.org/georgia/decatur/6281-The-Hirsch-Academy/?s_cid=gsapi","http://www.greatschools.org/school/rating.page?state=GA&id=6281&s_cid=gsapi","http://www.greatschools.org/school/parentReviews.page?state=GA&id=6281&s_cid=gsapi"
"2224","The Waldorf School of Atlanta","private","PK-8","Decatur","827 Kirk Road, Decatur, GA  30030","(404) 377-1315","","http://www.waldorfatlanta.org","33.76117","-84.2804","http://www.greatschools.org/georgia/decatur/2224-The-Waldorf-School-Of-Atlanta/?s_cid=gsapi","http://www.greatschools.org/school/rating.page?state=GA&id=2224&s_cid=gsapi","http://www.greatschools.org/school/parentReviews.page?state=GA&id=2224&s_cid=gsapi"
"763","Toney Elementary School","public","PK-5","Decatur","2701 Oakland Ter, Decatur, GA  30032","(678) 874-2102","(678) 874-2110","","33.72713","-84.27805","http://www.greatschools.org/georgia/decatur/763-Toney-Elementary-School/?s_cid=gsapi","http://www.greatschools.org/school/rating.page?state=GA&id=763&s_cid=gsapi","http://www.greatschools.org/school/parentReviews.page?state=GA&id=763&s_cid=gsapi"
"739","Towers High School","public","9-12","Decatur","3919 Brookcrest Cir, Decatur, GA  30032","(678) 874-2202","(678) 874-2210","","33.747368","-84.237076","http://www.greatschools.org/georgia/decatur/739-Towers-High-School/?s_cid=gsapi","http://www.greatschools.org/school/rating.page?state=GA&id=739&s_cid=gsapi","http://www.greatschools.org/school/parentReviews.page?state=GA&id=739&s_cid=gsapi"
"6362","Wadsworth Magnet School For High Achievers","public","4-6","Decatur","2084 Green Forrest Dr, Decatur, GA  30032","(678) 874-2402","","","33.72886","-84.25837","http://www.greatschools.org/georgia/decatur/6362-Wadsworth-Magnet-School-For-High-Achievers/?s_cid=gsapi","http://www.greatschools.org/school/rating.page?state=GA&id=6362&s_cid=gsapi","http://www.greatschools.org/school/parentReviews.page?state=GA&id=6362&s_cid=gsapi"
"3571","Wee Wisdom Day Nursery & Kindergarten","private","PK-1","Decatur","1535 Columbia Drive, Decatur, GA  30032","(404) 284-8898","","","33.74415","-84.26002","http://www.greatschools.org/georgia/decatur/3571-Wee-Wisdom-Day-Nursery-&-Kindergarten/?s_cid=gsapi","http://www.greatschools.org/school/rating.page?state=GA&id=3571&s_cid=gsapi","http://www.greatschools.org/school/parentReviews.page?state=GA&id=3571&s_cid=gsapi"
"681","Westchester Elementary School","charter","K-3","Decatur","758 Scott Blvd, Decatur, GA  30002","(404) 370-4400","","http://westchester.csdecatur.net/","33.78338","-84.306435","http://www.greatschools.org/georgia/decatur/681-Westchester-Elementary-School/?s_cid=gsapi","http://www.greatschools.org/school/rating.page?state=GA&id=681&s_cid=gsapi","http://www.greatschools.org/school/parentReviews.page?state=GA&id=681&s_cid=gsapi"
"6844","Wings Of A Dove Christian Academy","private","PK-3","Decatur","6038 Covington Highway, Decatur, GA  30035","(678) 418-3209","","","33.72409","-84.170616","http://www.greatschools.org/georgia/decatur/6844-Wings-Of-A-Dove-Christian-Academy/?s_cid=gsapi","http://www.greatschools.org/school/rating.page?state=GA&id=6844&s_cid=gsapi","http://www.greatschools.org/school/parentReviews.page?state=GA&id=6844&s_cid=gsapi"
"6289","Wings of A Dove Christian Academy","private","PK-1","Decatur","6038 Covington Hwy, Decatur, GA  30035","(678) 418-3209","","","33.725254","-84.17014","http://www.greatschools.org/georgia/decatur/6289-Wings-Of-A-Dove-Christian-Academy/?s_cid=gsapi","http://www.greatschools.org/school/rating.page?state=GA&id=6289&s_cid=gsapi","http://www.greatschools.org/school/parentReviews.page?state=GA&id=6289&s_cid=gsapi"
"679","Winnona Park Elementary School","public","K-3","Decatur","510 Avery St, Decatur, GA  30030","(404) 370-4490","(404) 370-4493","http://www.winnonapark.cityschoolsofdecatur.com/","33.765076","-84.28968","http://www.greatschools.org/georgia/decatur/679-Winnona-Park-Elementary-School/?s_cid=gsapi","http://www.greatschools.org/school/rating.page?state=GA&id=679&s_cid=gsapi","http://www.greatschools.org/school/parentReviews.page?state=GA&id=679&s_cid=gsapi"
"782","Cary Reynolds Elementary School","public","PK-5","Doraville","3498 Pine St, Doraville, GA  30340","(678) 676-6802","(678) 676-6810","","33.89154","-84.27166","http://www.greatschools.org/georgia/doraville/782-Cary-Reynolds-Elementary-School/?s_cid=gsapi","http://www.greatschools.org/school/rating.page?state=GA&id=782&s_cid=gsapi","http://www.greatschools.org/school/parentReviews.page?state=GA&id=782&s_cid=gsapi"
"709","Evansdale Elementary School","public","PK-5","Doraville","2914 Evans Woods Dr, Doraville, GA  30340","(678) 874-2702","(678) 874-2710","","33.87295","-84.24032","http://www.greatschools.org/georgia/doraville/709-Evansdale-Elementary-School/?s_cid=gsapi","http://www.greatschools.org/school/rating.page?state=GA&id=709&s_cid=gsapi","http://www.greatschools.org/school/parentReviews.page?state=GA&id=709&s_cid=gsapi"
"755","Hightower Elementary School","public","PK-5","Doraville","4236 Tilly Mill Rd, Doraville, GA  30360","(678) 676-7302","(678) 676-7310","","33.91813","-84.28198","http://www.greatschools.org/georgia/doraville/755-Hightower-Elementary-School/?s_cid=gsapi","http://www.greatschools.org/school/rating.page?state=GA&id=755&s_cid=gsapi","http://www.greatschools.org/school/parentReviews.page?state=GA&id=755&s_cid=gsapi"
"752","Oakcliff Elementary School","public","PK-5","Doraville","3151 Willow Oak Way, Doraville, GA  30340","(678) 676-3102","(678) 676-3110","","33.902805","-84.2584","http://www.greatschools.org/georgia/doraville/752-Oakcliff-Elementary-School/?s_cid=gsapi","http://www.greatschools.org/school/rating.page?state=GA&id=752&s_cid=gsapi","http://www.greatschools.org/school/parentReviews.page?state=GA&id=752&s_cid=gsapi"
"767","Pleasantdale Elementary School","public","PK-5","Doraville","3695 Northlake Dr, Doraville, GA  30340","(678) 874-3502","(678) 874-3510","http://www.pleasantdalees.dekalb.k12.ga.us/","33.89107","-84.236404","http://www.greatschools.org/georgia/doraville/767-Pleasantdale-Elementary-School/?s_cid=gsapi","http://www.greatschools.org/school/rating.page?state=GA&id=767&s_cid=gsapi","http://www.greatschools.org/school/parentReviews.page?state=GA&id=767&s_cid=gsapi"
"2060","Atlanta North School Of Seventh-Day Adventists","private","PK-8","Dunwoody","5123 Chamblee Dunwoody Road, Dunwoody, GA  30338","(770) 512-8456","","","33.93862","-84.32575","http://www.greatschools.org/georgia/dunwoody/2060-Atlanta-North-School-Of-Seventh-Day-Adventists/?s_cid=gsapi","http://www.greatschools.org/school/rating.page?state=GA&id=2060&s_cid=gsapi","http://www.greatschools.org/school/parentReviews.page?state=GA&id=2060&s_cid=gsapi"
"699","Austin Elementary School","public","PK-5","Dunwoody","5435 Roberts Dr, Dunwoody, GA  30338","(678) 874-8102","(678) 874-8110","","33.95984","-84.33577","http://www.greatschools.org/georgia/dunwoody/699-Austin-Elementary-School/?s_cid=gsapi","http://www.greatschools.org/school/rating.page?state=GA&id=699&s_cid=gsapi","http://www.greatschools.org/school/parentReviews.page?state=GA&id=699&s_cid=gsapi"
"773","Chesnut Elementary School","charter","PK-5","Dunwoody","4576 N Peachtree Rd, Dunwoody, GA  30338","(678) 676-7102","(678) 676-7110","http://www.dekalb.k12.ga.us/chesnut/","33.927525","-84.29643","http://www.greatschools.org/georgia/dunwoody/773-Chesnut-Elementary-School/?s_cid=gsapi","http://www.greatschools.org/school/rating.page?state=GA&id=773&s_cid=gsapi","http://www.greatschools.org/school/parentReviews.page?state=GA&id=773&s_cid=gsapi"
"2967","Deo Preparatory School of GA","private","K-8","Dunwoody","5067 Chamblee Dunwoody Road, Dunwoody, GA  30338","(770) 395-5770","","","33.9369","-84.3252","http://www.greatschools.org/georgia/dunwoody/2967-Deo-Preparatory-School-Of-GA/?s_cid=gsapi","http://www.greatschools.org/school/rating.page?state=GA&id=2967&s_cid=gsapi","http://www.greatschools.org/school/parentReviews.page?state=GA&id=2967&s_cid=gsapi"
"6437","Dunwoody Elementary School","public","PK-5","Dunwoody","1923 Womack Rd, Dunwoody, GA  30338","(678) 875-4002","(678) 875-4010","http://www.dunwoodyes.dekalb.k12.ga.us/","33.943478","-84.30886","http://www.greatschools.org/georgia/dunwoody/6437-Dunwoody-Elementary-School/?s_cid=gsapi","http://www.greatschools.org/school/rating.page?state=GA&id=6437&s_cid=gsapi","http://www.greatschools.org/school/parentReviews.page?state=GA&id=6437&s_cid=gsapi"
"743","Dunwoody High School","public","9-12","Dunwoody","5035 Vermack Rd, Dunwoody, GA  30338","(678) 874-8502","(678) 874-8510","","33.945244","-84.31492","http://www.greatschools.org/georgia/dunwoody/743-Dunwoody-High-School/?s_cid=gsapi","http://www.greatschools.org/school/rating.page?state=GA&id=743&s_cid=gsapi","http://www.greatschools.org/school/parentReviews.page?state=GA&id=743&s_cid=gsapi"
"738","Kingsley Elementary School","charter","PK-5","Dunwoody","2051 Brendon Dr, Dunwoody, GA  30338","(678) 874-8902","(678) 874-8910","http://www.kingsleycharter.org/","33.94816","-84.29767","http://www.greatschools.org/georgia/dunwoody/738-Kingsley-Elementary-School/?s_cid=gsapi","http://www.greatschools.org/school/rating.page?state=GA&id=738&s_cid=gsapi","http://www.greatschools.org/school/parentReviews.page?state=GA&id=738&s_cid=gsapi"
"6941","Learn Languages Academy","private","PK-12 & ungraded","Dunwoody","4675 North Shallowford Road, Dunwoody, GA  30338","(678) 871-7077","","","33.929207","-84.31313","http://www.greatschools.org/georgia/dunwoody/6941-Learn-Languages-Academy/?s_cid=gsapi","http://www.greatschools.org/school/rating.page?state=GA&id=6941&s_cid=gsapi","http://www.greatschools.org/school/parentReviews.page?state=GA&id=6941&s_cid=gsapi"
"8364","Montessori School Of Dunwoody","private","K","Dunwoody","1730 Mount Vernon Road, Dunwoody, GA  30338","(770) 804-1444","","","33.94712","-84.33086","http://www.greatschools.org/georgia/dunwoody/8364-Montessori-School-Of-Dunwoody/?s_cid=gsapi","http://www.greatschools.org/school/rating.page?state=GA&id=8364&s_cid=gsapi","http://www.greatschools.org/school/parentReviews.page?state=GA&id=8364&s_cid=gsapi"
"700","Vanderlyn Elementary School","public","PK-5","Dunwoody","1877 Vanderlyn Dr, Dunwoody, GA  30338","(678) 874-9002","(678) 874-9010","","33.94554","-84.31386","http://www.greatschools.org/georgia/dunwoody/700-Vanderlyn-Elementary-School/?s_cid=gsapi","http://www.greatschools.org/school/rating.page?state=GA&id=700&s_cid=gsapi","http://www.greatschools.org/school/parentReviews.page?state=GA&id=700&s_cid=gsapi"
"2936","A Unique Learning Academy","private","PK-1","Lithonia","7290 Covington Hwy, Lithonia, GA  30058","(770) 484-8226","","","33.71256","-84.12188","http://www.greatschools.org/georgia/lithonia/2936-A-Unique-Learning-Academy/?s_cid=gsapi","http://www.greatschools.org/school/rating.page?state=GA&id=2936&s_cid=gsapi","http://www.greatschools.org/school/parentReviews.page?state=GA&id=2936&s_cid=gsapi"
"6522","Arabia Mountain High School - Academy Of Engineeri","public","9-12","Lithonia","6610 Browns Mill Rd, Lithonia, GA  30038","(678) 875-3602","(678) 875-3610","http://www.arabiamtnhs.dekalb.k12.ga.us/","33.651672","-84.12634","http://www.greatschools.org/georgia/lithonia/6522-Arabia-Mountain-High-School---Academy-Of-Engineeri/?s_cid=gsapi","http://www.greatschools.org/school/rating.page?state=GA&id=6522&s_cid=gsapi","http://www.greatschools.org/school/parentReviews.page?state=GA&id=6522&s_cid=gsapi"
"3577","Bits & Bytes Learning Center","private","PK-4","Lithonia","3072 Evans Mill Road, Lithonia, GA  30038","(770) 482-6118","","","33.69751","-84.12386","http://www.greatschools.org/georgia/lithonia/3577-Bits-&-Bytes-Learning-Center/?s_cid=gsapi","http://www.greatschools.org/school/rating.page?state=GA&id=3577&s_cid=gsapi","http://www.greatschools.org/school/parentReviews.page?state=GA&id=3577&s_cid=gsapi"
"803","Browns Mill Elementary School","public","PK-5","Lithonia","4863 Browns Mill Rd, Lithonia, GA  30038","(678) 676-8302","(678) 676-8310","","33.67646","-84.18916","http://www.greatschools.org/georgia/lithonia/803-Browns-Mill-Elementary-School/?s_cid=gsapi","http://www.greatschools.org/school/rating.page?state=GA&id=803&s_cid=gsapi","http://www.greatschools.org/school/parentReviews.page?state=GA&id=803&s_cid=gsapi"
"6778","Children For Christ Academy","private","PK-6","Lithonia","2637 Panola Road, Lithonia, GA  30058","(770) 322-6370","","","33.711567","-84.16746","http://www.greatschools.org/georgia/lithonia/6778-Children-For-Christ-Academy/?s_cid=gsapi","http://www.greatschools.org/school/rating.page?state=GA&id=6778&s_cid=gsapi","http://www.greatschools.org/school/parentReviews.page?state=GA&id=6778&s_cid=gsapi"
"5305","Children for Christ Academy","private","PK-5","Lithonia","2637 Panola Road, Lithonia, GA  30058","","","","33.711567","-84.16746","http://www.greatschools.org/georgia/lithonia/5305-Children-For-Christ-Academy/?s_cid=gsapi","http://www.greatschools.org/school/rating.page?state=GA&id=5305&s_cid=gsapi","http://www.greatschools.org/school/parentReviews.page?state=GA&id=5305&s_cid=gsapi"
"6850","Cornerstone Leadership Academy","private","PK-5","Lithonia","3800 Big Miller Grove Way, Lithonia, GA  30038","(770) 981-7868","","","33.680714","-84.17419","http://www.greatschools.org/georgia/lithonia/6850-Cornerstone-Leadership-Academy/?s_cid=gsapi","http://www.greatschools.org/school/rating.page?state=GA&id=6850&s_cid=gsapi","http://www.greatschools.org/school/parentReviews.page?state=GA&id=6850&s_cid=gsapi"
"2143","Discovery Academy","private","PK-4","Lithonia","3174 Miller Road, Lithonia, GA  30038","(770) 981-4522","","","33.696114","-84.18384","http://www.greatschools.org/georgia/lithonia/2143-Discovery-Academy/?s_cid=gsapi","http://www.greatschools.org/school/rating.page?state=GA&id=2143&s_cid=gsapi","http://www.greatschools.org/school/parentReviews.page?state=GA&id=2143&s_cid=gsapi"
"3241","Eagle Woods Academy","public","n/a","Lithonia","5931 Shadow Rock Dr, Lithonia, GA  30058","(678) 676-8102","","","33.76244","-84.15305","http://www.greatschools.org/georgia/lithonia/3241-Eagle-Woods-Academy/?s_cid=gsapi","http://www.greatschools.org/school/rating.page?state=GA&id=3241&s_cid=gsapi","http://www.greatschools.org/school/parentReviews.page?state=GA&id=3241&s_cid=gsapi"
"791","Edward L. Bouie- Sr. Elementary School","public","PK-5","Lithonia","5100 Rock Springs Rd, Lithonia, GA  30038","(678) 676-8202","(678) 676-8210","","33.6893","-84.18469","http://www.greatschools.org/georgia/lithonia/791-Edward-L.-Bouie--Sr.-Elementary-School/?s_cid=gsapi","http://www.greatschools.org/school/rating.page?state=GA&id=791&s_cid=gsapi","http://www.greatschools.org/school/parentReviews.page?state=GA&id=791&s_cid=gsapi"
"3584","Excellent Montessori School","private","PK-7","Lithonia","1828 Stephenson Road, Lithonia, GA  30058","(678) 526-0160","","www.excellentmontessori.com","33.761757","-84.08272","http://www.greatschools.org/georgia/lithonia/3584-Excellent-Montessori-School/?s_cid=gsapi","http://www.greatschools.org/school/rating.page?state=GA&id=3584&s_cid=gsapi","http://www.greatschools.org/school/parentReviews.page?state=GA&id=3584&s_cid=gsapi"
"703","Fairington Elementary School","public","PK-5","Lithonia","5505 Philip Bradley Dr, Lithonia, GA  30038","(678) 676-8702","(678) 676-8710","","33.69564","-84.16441","http://www.greatschools.org/georgia/lithonia/703-Fairington-Elementary-School/?s_cid=gsapi","http://www.greatschools.org/school/rating.page?state=GA&id=703&s_cid=gsapi","http://www.greatschools.org/school/parentReviews.page?state=GA&id=703&s_cid=gsapi"
"3937","Flat Rock Elementary School","public","PK-5","Lithonia","4603 Evans Mill Rd, Lithonia, GA  30038","(678) 875-3202","","","33.65887","-84.15999","http://www.greatschools.org/georgia/lithonia/3937-Flat-Rock-Elementary-School/?s_cid=gsapi","http://www.greatschools.org/school/rating.page?state=GA&id=3937&s_cid=gsapi","http://www.greatschools.org/school/parentReviews.page?state=GA&id=3937&s_cid=gsapi"
"2082","Glenn Nova Christian Academy","private","K-12","Lithonia","5241 Rock Springs Road, Lithonia, GA  30038","(770) 837-1953","","","33.686558","-84.18126","http://www.greatschools.org/georgia/lithonia/2082-Glenn-Nova-Christian-Academy/?s_cid=gsapi","http://www.greatschools.org/school/rating.page?state=GA&id=2082&s_cid=gsapi","http://www.greatschools.org/school/parentReviews.page?state=GA&id=2082&s_cid=gsapi"
"6249","Hope Schools of Excellence","private","PK-10","Lithonia","6440 Rock Springs Rd, Lithonia, GA  30038","(678) 323-8000","","","33.68813","-84.14099","http://www.greatschools.org/georgia/lithonia/6249-Hope-Schools-Of-Excellence/?s_cid=gsapi","http://www.greatschools.org/school/rating.page?state=GA&id=6249&s_cid=gsapi","http://www.greatschools.org/school/parentReviews.page?state=GA&id=6249&s_cid=gsapi"
"6534","Leadership Preparatory Academy","charter","K-7","Lithonia","6400 Woodrow Rd, Lithonia, GA  30038","(404) 656-3103","","","33.69537","-84.13054","http://www.greatschools.org/georgia/lithonia/6534-Leadership-Preparatory-Academy/?s_cid=gsapi","http://www.greatschools.org/school/rating.page?state=GA&id=6534&s_cid=gsapi","http://www.greatschools.org/school/parentReviews.page?state=GA&id=6534&s_cid=gsapi"
"2167","Lithonia Adventist Academy Elementary","private","PK-8","Lithonia","3533 Ragsdale Road, Lithonia, GA  30038","(770) 482-0294","","http://www.lithoniaadventistacademy.org","33.678665","-84.13491","http://www.greatschools.org/georgia/lithonia/2167-Lithonia-Adventist-Academy-Elementary/?s_cid=gsapi","http://www.greatschools.org/school/rating.page?state=GA&id=2167&s_cid=gsapi","http://www.greatschools.org/school/parentReviews.page?state=GA&id=2167&s_cid=gsapi"
"737","Lithonia High School","public","9-12","Lithonia","2440 Phillips Rd, Lithonia, GA  30058","(678) 676-2902","(678) 676-2910","","33.72513","-84.13059","http://www.greatschools.org/georgia/lithonia/737-Lithonia-High-School/?s_cid=gsapi","http://www.greatschools.org/school/rating.page?state=GA&id=737&s_cid=gsapi","http://www.greatschools.org/school/parentReviews.page?state=GA&id=737&s_cid=gsapi"
"3042","Lithonia Middle School","public","6-8","Lithonia","2451 Randall Ave, Lithonia, GA  30058","(678) 875-0702","(678) 875-0710","","33.71558","-84.11263","http://www.greatschools.org/georgia/lithonia/3042-Lithonia-Middle-School/?s_cid=gsapi","http://www.greatschools.org/school/rating.page?state=GA&id=3042&s_cid=gsapi","http://www.greatschools.org/school/parentReviews.page?state=GA&id=3042&s_cid=gsapi"
"790","Marbut Elementary School","public","PK-5","Lithonia","5776 Marbut Rd, Lithonia, GA  30058","(678) 676-8802","(678) 676-8810","","33.73018","-84.15263","http://www.greatschools.org/georgia/lithonia/790-Marbut-Elementary-School/?s_cid=gsapi","http://www.greatschools.org/school/rating.page?state=GA&id=790&s_cid=gsapi","http://www.greatschools.org/school/parentReviews.page?state=GA&id=790&s_cid=gsapi"
"2588","Martin Luther King- Jr. High School","public","9-12","Lithonia","3991 Snapfinger Rd, Lithonia, GA  30038","(678) 874-5402","(678) 874-5410","http://www.mlkinghs.dekalb.k12.ga.us/Default.aspx","33.659943","-84.19901","http://www.greatschools.org/georgia/lithonia/2588-Martin-Luther-King--Jr.-High-School/?s_cid=gsapi","http://www.greatschools.org/school/rating.page?state=GA&id=2588&s_cid=gsapi","http://www.greatschools.org/school/parentReviews.page?state=GA&id=2588&s_cid=gsapi"
"3677","Miller Grove High School","public","9-12","Lithonia","2645 Dekalb Medical Parkway, Lithonia, GA  30058","(678) 875-1102","(678) 875-1110","","33.70948","-84.15003","http://www.greatschools.org/georgia/lithonia/3677-Miller-Grove-High-School/?s_cid=gsapi","http://www.greatschools.org/school/rating.page?state=GA&id=3677&s_cid=gsapi","http://www.greatschools.org/school/parentReviews.page?state=GA&id=3677&s_cid=gsapi"
"2164","Miller's Preparatory Academy for Boys","private","2-12","Lithonia","1833 Stone Mountain Lithonia Road, Lithonia, GA  30058","(770) 484-8850","","http://www.MillersPrepAcademy.org","33.74462","-84.140076","http://www.greatschools.org/georgia/lithonia/2164-Miller's-Preparatory-Academy-For-Boys/?s_cid=gsapi","http://www.greatschools.org/school/rating.page?state=GA&id=2164&s_cid=gsapi","http://www.greatschools.org/school/parentReviews.page?state=GA&id=2164&s_cid=gsapi"
"759","Murphy Candler Elementary School","public","PK-5","Lithonia","6775 South Goddard Rd, Lithonia, GA  30038","(678) 676-9102","(678) 676-9110","http://schools.dekalb.k12.ga.us/murpheycandler/","33.65079","-84.12745","http://www.greatschools.org/georgia/lithonia/759-Murphy-Candler-Elementary-School/?s_cid=gsapi","http://www.greatschools.org/school/rating.page?state=GA&id=759&s_cid=gsapi","http://www.greatschools.org/school/parentReviews.page?state=GA&id=759&s_cid=gsapi"
"2187","New Birth Christian Academy","private","PK-12","Lithonia","Po Box 610, Lithonia, GA  30058","(770) 696-9678","","","33.71233","-84.105194","http://www.greatschools.org/georgia/lithonia/2187-New-Birth-Christian-Academy/?s_cid=gsapi","http://www.greatschools.org/school/rating.page?state=GA&id=2187&s_cid=gsapi","http://www.greatschools.org/school/parentReviews.page?state=GA&id=2187&s_cid=gsapi"
"799","Panola Way Elementary School","public","PK-5","Lithonia","2170 Panola Way Court, Lithonia, GA  30058","(678) 676-9302","(678) 676-9310","www.dekalb.k12.ga.us/panolaway ","33.729313","-84.16929","http://www.greatschools.org/georgia/lithonia/799-Panola-Way-Elementary-School/?s_cid=gsapi","http://www.greatschools.org/school/rating.page?state=GA&id=799&s_cid=gsapi","http://www.greatschools.org/school/parentReviews.page?state=GA&id=799&s_cid=gsapi"
"3940","Princeton Elementary School","public","PK-5","Lithonia","1301 South Deshon Rd, Lithonia, GA  30058","(678) 875-3002","","","33.76081","-84.11401","http://www.greatschools.org/georgia/lithonia/3940-Princeton-Elementary-School/?s_cid=gsapi","http://www.greatschools.org/school/rating.page?state=GA&id=3940&s_cid=gsapi","http://www.greatschools.org/school/parentReviews.page?state=GA&id=3940&s_cid=gsapi"
"735","Redan Elementary School","public","PK-5","Lithonia","1914 Stone Mountain Lithonia, Lithonia, GA  30058","(678) 676-3502","(678) 676-3510","","33.74588","-84.13585","http://www.greatschools.org/georgia/lithonia/735-Redan-Elementary-School/?s_cid=gsapi","http://www.greatschools.org/school/rating.page?state=GA&id=735&s_cid=gsapi","http://www.greatschools.org/school/parentReviews.page?state=GA&id=735&s_cid=gsapi"
"3043","Redan Middle School","public","6-8","Lithonia","1775 Young Rd, Lithonia, GA  30058","(678) 874-7902","(678) 874-7910","","33.74177","-84.15704","http://www.greatschools.org/georgia/lithonia/3043-Redan-Middle-School/?s_cid=gsapi","http://www.greatschools.org/school/rating.page?state=GA&id=3043&s_cid=gsapi","http://www.greatschools.org/school/parentReviews.page?state=GA&id=3043&s_cid=gsapi"
"766","Rock Chapel Elementary School","public","PK-5","Lithonia","1130 Rock Chapel Rd, Lithonia, GA  30058","(678) 676-3802","(678) 676-3810","http://www.rockchapeles.dekalb.k12.ga.us/Default.aspx","33.760014","-84.0793","http://www.greatschools.org/georgia/lithonia/766-Rock-Chapel-Elementary-School/?s_cid=gsapi","http://www.greatschools.org/school/rating.page?state=GA&id=766&s_cid=gsapi","http://www.greatschools.org/school/parentReviews.page?state=GA&id=766&s_cid=gsapi"
"694","Salem Middle School","public","6-8","Lithonia","5333 Salem Rd, Lithonia, GA  30038","(678) 676-9402","(678) 676-9410","","33.67618","-84.17183","http://www.greatschools.org/georgia/lithonia/694-Salem-Middle-School/?s_cid=gsapi","http://www.greatschools.org/school/rating.page?state=GA&id=694&s_cid=gsapi","http://www.greatschools.org/school/parentReviews.page?state=GA&id=694&s_cid=gsapi"
"693","Shadow Rock Elementary School","public","PK-5","Lithonia","1040 King Way Dr, Lithonia, GA  30058","(678) 676-3902","(678) 676-3910","","33.7637","-84.14478","http://www.greatschools.org/georgia/lithonia/693-Shadow-Rock-Elementary-School/?s_cid=gsapi","http://www.greatschools.org/school/rating.page?state=GA&id=693&s_cid=gsapi","http://www.greatschools.org/school/parentReviews.page?state=GA&id=693&s_cid=gsapi"
"3593","Sparks Christian Academy #2","private","PK-11","Lithonia","5949 Fairington Road, Lithonia, GA  30038","(770) 808-0301","","","33.70189","-84.148346","http://www.greatschools.org/georgia/lithonia/3593-Sparks-Christian-Academy-2/?s_cid=gsapi","http://www.greatschools.org/school/rating.page?state=GA&id=3593&s_cid=gsapi","http://www.greatschools.org/school/parentReviews.page?state=GA&id=3593&s_cid=gsapi"
"747","Stoneview Elementary School","public","PK-5","Lithonia","2629 Huber St, Lithonia, GA  30058","(678) 676-3202","(678) 676-3210","","33.70763","-84.119644","http://www.greatschools.org/georgia/lithonia/747-Stoneview-Elementary-School/?s_cid=gsapi","http://www.greatschools.org/school/rating.page?state=GA&id=747&s_cid=gsapi","http://www.greatschools.org/school/parentReviews.page?state=GA&id=747&s_cid=gsapi"
"3539","The Drake School","private","K-3","Lithonia","475 South Deshon Road, Lithonia, GA  30058","(770) 879-8922","","http://www.thedrakeschool.com/","33.783516","-84.10317","http://www.greatschools.org/georgia/lithonia/3539-The-Drake-School/?s_cid=gsapi","http://www.greatschools.org/school/rating.page?state=GA&id=3539&s_cid=gsapi","http://www.greatschools.org/school/parentReviews.page?state=GA&id=3539&s_cid=gsapi"
"8458","Thrive Christian Academy","private","PK-6","Lithonia","1833 S.Stone Mountain Lithonia Rd, Lithonia, GA  30058","(770) 674-7402","(888) 966-0642","www.ThriveChristianAcademy.org","33.74666","-84.14056","http://www.greatschools.org/georgia/lithonia/8458-Thrive-Christian-Academy/?s_cid=gsapi","http://www.greatschools.org/school/rating.page?state=GA&id=8458&s_cid=gsapi","http://www.greatschools.org/school/parentReviews.page?state=GA&id=8458&s_cid=gsapi"
"6655","A Chosen Generation Christian Academy","private","K-12","Stone-Mountain"," 2300 West Park Place Blvd, Stone Mountain, GA  30087","(770) 879-7433","(770) 879-3293","http://acgk12.org/","33.814346","-84.11358","http://www.greatschools.org/georgia/stone-mountain/6655-A-Chosen-Generation-Christian-Academy/?s_cid=gsapi","http://www.greatschools.org/school/rating.page?state=GA&id=6655&s_cid=gsapi","http://www.greatschools.org/school/parentReviews.page?state=GA&id=6655&s_cid=gsapi"
"4010","Action Montessori Academy","private","n/a","Stone-Mountain","5580 Rockbridge Road, Stone Mountain, GA  30088","(770) 879-8331","","","33.788563","-84.16682","http://www.greatschools.org/georgia/stone-mountain/4010-Action-Montessori-Academy/?s_cid=gsapi","http://www.greatschools.org/school/rating.page?state=GA&id=4010&s_cid=gsapi","http://www.greatschools.org/school/parentReviews.page?state=GA&id=4010&s_cid=gsapi"
"3511","Advance Preparatory Academy","private","PK-1","Stone-Mountain","431 Allgood Road, Stone Mountain, GA  30083","(404) 294-6200","","","33.785805","-84.20912","http://www.greatschools.org/georgia/stone-mountain/3511-Advance-Preparatory-Academy/?s_cid=gsapi","http://www.greatschools.org/school/rating.page?state=GA&id=3511&s_cid=gsapi","http://www.greatschools.org/school/parentReviews.page?state=GA&id=3511&s_cid=gsapi"
"722","Allgood Elementary School","public","PK-5","Stone-Mountain","659 Allgood Rd, Stone Mountain, GA  30083","(678) 676-5102","(678) 676-5110","","33.77947","-84.21238","http://www.greatschools.org/georgia/stone-mountain/722-Allgood-Elementary-School/?s_cid=gsapi","http://www.greatschools.org/school/rating.page?state=GA&id=722&s_cid=gsapi","http://www.greatschools.org/school/parentReviews.page?state=GA&id=722&s_cid=gsapi"
"6222","Aya Educational Institute","private","n/a","Stone-Mountain","852 Brafferton Pl, Stone Mountain, GA  30083","(404) 292-9002","","","33.770256","-84.21914","http://www.greatschools.org/georgia/stone-mountain/6222-Aya-Educational-Institute/?s_cid=gsapi","http://www.greatschools.org/school/rating.page?state=GA&id=6222&s_cid=gsapi","http://www.greatschools.org/school/parentReviews.page?state=GA&id=6222&s_cid=gsapi"
"6774","Berean Christian Academy","private","K-8","Stone-Mountain","2197 Young Road, Stone Mountain, GA  30088","(678) 518-1678","(678) 518-1684","www.bereanchristianchurch.org","33.73802","-84.17018","http://www.greatschools.org/georgia/stone-mountain/6774-Berean-Christian-Academy/?s_cid=gsapi","http://www.greatschools.org/school/rating.page?state=GA&id=6774&s_cid=gsapi","http://www.greatschools.org/school/parentReviews.page?state=GA&id=6774&s_cid=gsapi"
"3827","Crossroads Christian School","private","PK-5","Stone-Mountain","5587 Redan Rd, Stone Mountain, GA  30088","(770) 469-9342","(770) 469-6635","http://www.crossroadschristianschool.net","33.755653","-84.16708","http://www.greatschools.org/georgia/stone-mountain/3827-Crossroads-Christian-School/?s_cid=gsapi","http://www.greatschools.org/school/rating.page?state=GA&id=3827&s_cid=gsapi","http://www.greatschools.org/school/parentReviews.page?state=GA&id=3827&s_cid=gsapi"
"2363","Decatur Adventist Jr Academy","private","K-8","Stone-Mountain","2584 Young Road, Stone Mountain, GA  30088","(770) 808-2188","","","33.73089","-84.18162","http://www.greatschools.org/georgia/stone-mountain/2363-Decatur-Adventist-Jr-Academy/?s_cid=gsapi","http://www.greatschools.org/school/rating.page?state=GA&id=2363&s_cid=gsapi","http://www.greatschools.org/school/parentReviews.page?state=GA&id=2363&s_cid=gsapi"
"6548","Dekalb Academy of Technology and the Environment Charter School","charter","K-8","Stone-Mountain","1492 Kelton Dr, Stone Mountain, GA  30083","(770) 484-5865","","","33.82419","-84.1996","http://www.greatschools.org/georgia/stone-mountain/6548-Dekalb-Academy-Of-Technology-And-The-Environment-Charter-School/?s_cid=gsapi","http://www.greatschools.org/school/rating.page?state=GA&id=6548&s_cid=gsapi","http://www.greatschools.org/school/parentReviews.page?state=GA&id=6548&s_cid=gsapi"
"2418","Dekalb Alternative School","public","6-12","Stone-Mountain","5855 Memorial Dr, Stone Mountain, GA  30083","(678) 676-2302","(678) 676-2310","","33.800945","-84.19967","http://www.greatschools.org/georgia/stone-mountain/2418-Dekalb-Alternative-School/?s_cid=gsapi","http://www.greatschools.org/school/rating.page?state=GA&id=2418&s_cid=gsapi","http://www.greatschools.org/school/parentReviews.page?state=GA&id=2418&s_cid=gsapi"
"3752","Dekalb Early College Academy","public","9-12","Stone-Mountain","1701 Mountain Industrial Blvd, Stone Mountain, GA  30083","(678) 676-0221","","","33.83219","-84.19545","http://www.greatschools.org/georgia/stone-mountain/3752-Dekalb-Early-College-Academy/?s_cid=gsapi","http://www.greatschools.org/school/rating.page?state=GA&id=3752&s_cid=gsapi","http://www.greatschools.org/school/parentReviews.page?state=GA&id=3752&s_cid=gsapi"
"775","Dunaire Elementary School","public","PK-5","Stone-Mountain","651 South Indian Creek Dr, Stone Mountain, GA  30083","(678) 676-5502","(678) 676-5510","","33.77957","-84.229294","http://www.greatschools.org/georgia/stone-mountain/775-Dunaire-Elementary-School/?s_cid=gsapi","http://www.greatschools.org/school/rating.page?state=GA&id=775&s_cid=gsapi","http://www.greatschools.org/school/parentReviews.page?state=GA&id=775&s_cid=gsapi"
"2748","East Dekalb Special Education Center","public","PK-12","Stone-Mountain","5839 Memorial Dr, Stone Mountain, GA  30083","(678) 676-1890","(678) 676-1888","","33.798477","-84.198296","http://www.greatschools.org/georgia/stone-mountain/2748-East-Dekalb-Special-Education-Center/?s_cid=gsapi","http://www.greatschools.org/school/rating.page?state=GA&id=2748&s_cid=gsapi","http://www.greatschools.org/school/parentReviews.page?state=GA&id=2748&s_cid=gsapi"
"5944","Eastminster Presbyterian Kindergarten","private","K","Stone-Mountain","5801 Hugh Howell Road, Stone Mountain, GA  30087","(770) 469-4881","","","33.832596","-84.15873","http://www.greatschools.org/georgia/stone-mountain/5944-Eastminster-Presbyterian-Kindergarten/?s_cid=gsapi","http://www.greatschools.org/school/rating.page?state=GA&id=5944&s_cid=gsapi","http://www.greatschools.org/school/parentReviews.page?state=GA&id=5944&s_cid=gsapi"
"798","Eldridge L. Miller Elementary School","public","PK-5","Stone-Mountain","919 Martin Rd, Stone Mountain, GA  30088","(678) 676-3302","(678) 676-3310","","33.76963","-84.18","http://www.greatschools.org/georgia/stone-mountain/798-Eldridge-L.-Miller-Elementary-School/?s_cid=gsapi","http://www.greatschools.org/school/rating.page?state=GA&id=798&s_cid=gsapi","http://www.greatschools.org/school/parentReviews.page?state=GA&id=798&s_cid=gsapi"
"6523","Elizabeth Andrews High School","public","10-12","Stone-Mountain","1701 Mountain Industrial Blvd, Stone Mountain, GA  30083","(678) 676-2602","","","33.83219","-84.19545","http://www.greatschools.org/georgia/stone-mountain/6523-Elizabeth-Andrews-High-School/?s_cid=gsapi","http://www.greatschools.org/school/rating.page?state=GA&id=6523&s_cid=gsapi","http://www.greatschools.org/school/parentReviews.page?state=GA&id=6523&s_cid=gsapi"
"2492","Freedom Middle School","public","6-8","Stone-Mountain","505 South Hairston Rd, Stone Mountain, GA  30088","(678) 874-8702","(678) 874-8710","","33.7811","-84.19644","http://www.greatschools.org/georgia/stone-mountain/2492-Freedom-Middle-School/?s_cid=gsapi","http://www.greatschools.org/school/rating.page?state=GA&id=2492&s_cid=gsapi","http://www.greatschools.org/school/parentReviews.page?state=GA&id=2492&s_cid=gsapi"
"2129","Gables Academy","private","7-12","Stone-Mountain","811 Gordon Street, Stone Mountain, GA  30083","(770) 465-7500","","http://www.gablesacademy.com/index.html","33.80314","-84.17651","http://www.greatschools.org/georgia/stone-mountain/2129-Gables-Academy/?s_cid=gsapi","http://www.greatschools.org/school/rating.page?state=GA&id=2129&s_cid=gsapi","http://www.greatschools.org/school/parentReviews.page?state=GA&id=2129&s_cid=gsapi"
"3588","Grace Heritage Christian Academy","private","PK-11","Stone-Mountain","1800 E. Park Place Blvd.Z, Stone Mountain, GA  30087","(770) 498-2650","","","33.8258","-84.1188","http://www.greatschools.org/georgia/stone-mountain/3588-Grace-Heritage-Christian-Academy/?s_cid=gsapi","http://www.greatschools.org/school/rating.page?state=GA&id=3588&s_cid=gsapi","http://www.greatschools.org/school/parentReviews.page?state=GA&id=3588&s_cid=gsapi"
"772","Hambrick Elementary School","public","PK-5","Stone-Mountain","1101 Hambrick Rd, Stone Mountain, GA  30083","(678) 676-5602","(678) 676-5610","","33.80942","-84.20426","http://www.greatschools.org/georgia/stone-mountain/772-Hambrick-Elementary-School/?s_cid=gsapi","http://www.greatschools.org/school/rating.page?state=GA&id=772&s_cid=gsapi","http://www.greatschools.org/school/parentReviews.page?state=GA&id=772&s_cid=gsapi"
"2281","Memorial Drive Presbyterian Community Children's P","private","PK-1","Stone-Mountain","5140 Memorial Drive, Stone Mountain, GA  30083","(404) 296-1783","","","33.79582","-84.2255","http://www.greatschools.org/georgia/stone-mountain/2281-Memorial-Drive-Presbyterian-Community-Children's-P/?s_cid=gsapi","http://www.greatschools.org/school/rating.page?state=GA&id=2281&s_cid=gsapi","http://www.greatschools.org/school/parentReviews.page?state=GA&id=2281&s_cid=gsapi"
"3504","Mount Carmel Christian School","private","PK-8","Stone-Mountain","6015 Old Stone Mountain Road, Stone Mountain, GA  30087","(770) 279-8443","","","33.827904","-84.14112","http://www.greatschools.org/georgia/stone-mountain/3504-Mount-Carmel-Christian-School/?s_cid=gsapi","http://www.greatschools.org/school/rating.page?state=GA&id=3504&s_cid=gsapi","http://www.greatschools.org/school/parentReviews.page?state=GA&id=3504&s_cid=gsapi"
"802","Pine Ridge Elementary School","public","PK-5","Stone-Mountain","750 Pine Ridge Dr, Stone Mountain, GA  30087","(678) 676-3402","(678) 676-3410","","33.77318","-84.12017","http://www.greatschools.org/georgia/stone-mountain/802-Pine-Ridge-Elementary-School/?s_cid=gsapi","http://www.greatschools.org/school/rating.page?state=GA&id=802&s_cid=gsapi","http://www.greatschools.org/school/parentReviews.page?state=GA&id=802&s_cid=gsapi"
"8371","Prime Care Learning Center Iii","private","PK-1","Stone-Mountain","2115 Rockbridge Road, Stone Mountain, GA  30087","(770) 469-2000","","","33.820213","-84.11204","http://www.greatschools.org/georgia/stone-mountain/8371-Prime-Care-Learning-Center-Iii/?s_cid=gsapi","http://www.greatschools.org/school/rating.page?state=GA&id=8371&s_cid=gsapi","http://www.greatschools.org/school/parentReviews.page?state=GA&id=8371&s_cid=gsapi"
"698","Redan High School","public","9-12","Stone-Mountain","5247 Redan Rd, Stone Mountain, GA  30088","(678) 676-3602","(678) 676-3610","","33.75742","-84.17799","http://www.greatschools.org/georgia/stone-mountain/698-Redan-High-School/?s_cid=gsapi","http://www.greatschools.org/school/rating.page?state=GA&id=698&s_cid=gsapi","http://www.greatschools.org/school/parentReviews.page?state=GA&id=698&s_cid=gsapi"
"706","Rockbridge Elementary School","public","PK-5","Stone-Mountain","445 Halwick Way, Stone Mountain, GA  30083","(678) 676-6102","(678) 676-6110","","33.788704","-84.1976","http://www.greatschools.org/georgia/stone-mountain/706-Rockbridge-Elementary-School/?s_cid=gsapi","http://www.greatschools.org/school/rating.page?state=GA&id=706&s_cid=gsapi","http://www.greatschools.org/school/parentReviews.page?state=GA&id=706&s_cid=gsapi"
"749","Rowland Elementary School","public","PK-5","Stone-Mountain","1317 South Indian Creek Dr, Stone Mountain, GA  30083","(678) 676-6202","(678) 676-6210","","33.75801","-84.2225","http://www.greatschools.org/georgia/stone-mountain/749-Rowland-Elementary-School/?s_cid=gsapi","http://www.greatschools.org/school/rating.page?state=GA&id=749&s_cid=gsapi","http://www.greatschools.org/school/parentReviews.page?state=GA&id=749&s_cid=gsapi"
"765","Smoke Rise Elementary School","charter","PK-5","Stone-Mountain","1991 Silver Hill Rd, Stone Mountain, GA  30087","(678) 874-3602","(678) 874-3610","http://www.dekalb.k12.ga.us/smokerise/","33.837383","-84.16123","http://www.greatschools.org/georgia/stone-mountain/765-Smoke-Rise-Elementary-School/?s_cid=gsapi","http://www.greatschools.org/school/rating.page?state=GA&id=765&s_cid=gsapi","http://www.greatschools.org/school/parentReviews.page?state=GA&id=765&s_cid=gsapi"
"8469","Smoke Rise Prep","private","1-8","Stone-Mountain","5901 Hugh Howell Road, Stone Mountain, GA  30087","(678) 585-4210","","www.smokeriseprep.org","33.830288","-84.15795","http://www.greatschools.org/georgia/stone-mountain/8469-Smoke-Rise-Prep/?s_cid=gsapi","http://www.greatschools.org/school/rating.page?state=GA&id=8469&s_cid=gsapi","http://www.greatschools.org/school/parentReviews.page?state=GA&id=8469&s_cid=gsapi"
"2268","Soaring Eagles Christian Academy","private","PK-12","Stone-Mountain","6212 Memorial Dr, Stone Mountain, GA  30083","(770) 879-3555","","","33.8061","-84.1872","http://www.greatschools.org/georgia/stone-mountain/2268-Soaring-Eagles-Christian-Academy/?s_cid=gsapi","http://www.greatschools.org/school/rating.page?state=GA&id=2268&s_cid=gsapi","http://www.greatschools.org/school/parentReviews.page?state=GA&id=2268&s_cid=gsapi"
"2223","St Timothy School","private","PK-5","Stone-Mountain","5365 Memorial Drive, Stone Mountain, GA  30083","(404) 297-8913","(404) 292-3396","http://www.sttimothyschool.com","33.798016","-84.21803","http://www.greatschools.org/georgia/stone-mountain/2223-St-Timothy-School/?s_cid=gsapi","http://www.greatschools.org/school/rating.page?state=GA&id=2223&s_cid=gsapi","http://www.greatschools.org/school/parentReviews.page?state=GA&id=2223&s_cid=gsapi"
"793","Stephenson High School","public","9-12","Stone-Mountain","701 Stephenson Rd, Stone Mountain, GA  30087","(678) 676-4202","(678) 676-4210","","33.77519","-84.12722","http://www.greatschools.org/georgia/stone-mountain/793-Stephenson-High-School/?s_cid=gsapi","http://www.greatschools.org/school/rating.page?state=GA&id=793&s_cid=gsapi","http://www.greatschools.org/school/parentReviews.page?state=GA&id=793&s_cid=gsapi"
"792","Stephenson Middle School","public","6-8","Stone-Mountain","922 Stephenson Rd, Stone Mountain, GA  30087","(678) 676-4402","(678) 676-4410","","33.77549","-84.1156","http://www.greatschools.org/georgia/stone-mountain/792-Stephenson-Middle-School/?s_cid=gsapi","http://www.greatschools.org/school/rating.page?state=GA&id=792&s_cid=gsapi","http://www.greatschools.org/school/parentReviews.page?state=GA&id=792&s_cid=gsapi"
"718","Stone Mill Elementary School","public","PK-5","Stone-Mountain","4900 Sheila Ln, Stone Mountain, GA  30083","(678) 676-4602","(678) 676-4610","","33.81641","-84.18908","http://www.greatschools.org/georgia/stone-mountain/718-Stone-Mill-Elementary-School/?s_cid=gsapi","http://www.greatschools.org/school/rating.page?state=GA&id=718&s_cid=gsapi","http://www.greatschools.org/school/parentReviews.page?state=GA&id=718&s_cid=gsapi"
"781","Stone Mountain Elementary School","public","PK-5","Stone-Mountain","6720 James B Rivers Dr, Stone Mountain, GA  30083","(678) 676-4702","(678) 676-4710","","33.81411","-84.16804","http://www.greatschools.org/georgia/stone-mountain/781-Stone-Mountain-Elementary-School/?s_cid=gsapi","http://www.greatschools.org/school/rating.page?state=GA&id=781&s_cid=gsapi","http://www.greatschools.org/school/parentReviews.page?state=GA&id=781&s_cid=gsapi"
"704","Stone Mountain High School","public","9-12","Stone-Mountain","4555 Central Dr, Stone Mountain, GA  30083","(678) 676-6302","(678) 676-6310","","33.80962","-84.2017","http://www.greatschools.org/georgia/stone-mountain/704-Stone-Mountain-High-School/?s_cid=gsapi","http://www.greatschools.org/school/rating.page?state=GA&id=704&s_cid=gsapi","http://www.greatschools.org/school/parentReviews.page?state=GA&id=704&s_cid=gsapi"
"3780","Stone Mountain Middle School","public","6-8","Stone-Mountain","4293 Sarr Parkway, Stone Mountain, GA  30083","(678) 676-4802","(678) 676-4810","http://www.dekalb.k12.ga.us/stonemountainms/","33.83149","-84.212","http://www.greatschools.org/georgia/stone-mountain/3780-Stone-Mountain-Middle-School/?s_cid=gsapi","http://www.greatschools.org/school/rating.page?state=GA&id=3780&s_cid=gsapi","http://www.greatschools.org/school/parentReviews.page?state=GA&id=3780&s_cid=gsapi"
"3738","The Champion Middle Theme School","public","6-8","Stone-Mountain","5265 Mimosa Dr, Stone Mountain, GA  30083","(678) 504-4302","","","33.80504","-84.17359","http://www.greatschools.org/georgia/stone-mountain/3738-The-Champion-Middle-Theme-School/?s_cid=gsapi","http://www.greatschools.org/school/rating.page?state=GA&id=3738&s_cid=gsapi","http://www.greatschools.org/school/parentReviews.page?state=GA&id=3738&s_cid=gsapi"
"2229","Victory Christian Academy","private","PK-6","Stone-Mountain","1170 N Hairston Rd, Stone Mountain, GA  30083","(678) 476-6089","","","33.813885","-84.195076","http://www.greatschools.org/georgia/stone-mountain/2229-Victory-Christian-Academy/?s_cid=gsapi","http://www.greatschools.org/school/rating.page?state=GA&id=2229&s_cid=gsapi","http://www.greatschools.org/school/parentReviews.page?state=GA&id=2229&s_cid=gsapi"
"2288","Victory Christian Academy","private","PK-3","Stone-Mountain","1170 North, Stone Mountain, GA  30052","(404) 294-1485","","","33.7605","-84.1638","http://www.greatschools.org/georgia/stone-mountain/2288-Victory-Christian-Academy/?s_cid=gsapi","http://www.greatschools.org/school/rating.page?state=GA&id=2288&s_cid=gsapi","http://www.greatschools.org/school/parentReviews.page?state=GA&id=2288&s_cid=gsapi"
"5937","Voices Of Faith Christian Academy","private","PK-5","Stone-Mountain","2125 Rockbridge Road, Stone Mountain, GA  30087","(670) 740-0215","","","33.839832","-84.1309","http://www.greatschools.org/georgia/stone-mountain/5937-Voices-Of-Faith-Christian-Academy/?s_cid=gsapi","http://www.greatschools.org/school/rating.page?state=GA&id=5937&s_cid=gsapi","http://www.greatschools.org/school/parentReviews.page?state=GA&id=5937&s_cid=gsapi"
"717","Woodridge Elementary School","public","PK-5","Stone-Mountain","4120 Cedar Ridge Trl, Stone Mountain, GA  30083","(678) 874-0202","(678) 874-0210","","33.74243","-84.20063","http://www.greatschools.org/georgia/stone-mountain/717-Woodridge-Elementary-School/?s_cid=gsapi","http://www.greatschools.org/school/rating.page?state=GA&id=717&s_cid=gsapi","http://www.greatschools.org/school/parentReviews.page?state=GA&id=717&s_cid=gsapi"
"2587","Wynbrooke Elementary School","public","PK-5","Stone-Mountain","440 Wicksbury Way, Stone Mountain, GA  30087","(678) 676-5002","(678) 676-5010","","33.78804","-84.111404","http://www.greatschools.org/georgia/stone-mountain/2587-Wynbrooke-Elementary-School/?s_cid=gsapi","http://www.greatschools.org/school/rating.page?state=GA&id=2587&s_cid=gsapi","http://www.greatschools.org/school/parentReviews.page?state=GA&id=2587&s_cid=gsapi"
"6772","Atlanta Adventist International School","private","K-8","Tucker","Po Box 341, Tucker, GA  30085","(678) 361-2912","","","33.854195","-84.212395","http://www.greatschools.org/georgia/tucker/6772-Atlanta-Adventist-International-School/?s_cid=gsapi","http://www.greatschools.org/school/rating.page?state=GA&id=6772&s_cid=gsapi","http://www.greatschools.org/school/parentReviews.page?state=GA&id=6772&s_cid=gsapi"
"8335","Aurora Strategies","private","K-12","Tucker","3776 Lavista Road, Tucker, GA  30084","(404) 377-8882","","","33.841637","-84.26162","http://www.greatschools.org/georgia/tucker/8335-Aurora-Strategies/?s_cid=gsapi","http://www.greatschools.org/school/rating.page?state=GA&id=8335&s_cid=gsapi","http://www.greatschools.org/school/parentReviews.page?state=GA&id=8335&s_cid=gsapi"
"713","Brockett Elementary School","public","PK-5","Tucker","1855 Brockett Rd, Tucker, GA  30084","(678) 874-2602","(678) 874-2610","","33.83709","-84.22173","http://www.greatschools.org/georgia/tucker/713-Brockett-Elementary-School/?s_cid=gsapi","http://www.greatschools.org/school/rating.page?state=GA&id=713&s_cid=gsapi","http://www.greatschools.org/school/parentReviews.page?state=GA&id=713&s_cid=gsapi"
"732","Idlewood Elementary School","public","PK-5","Tucker","1484 Idlewood Rd, Tucker, GA  30084","(678) 874-3202","(678) 874-3210","","33.82785","-84.22226","http://www.greatschools.org/georgia/tucker/732-Idlewood-Elementary-School/?s_cid=gsapi","http://www.greatschools.org/school/rating.page?state=GA&id=732&s_cid=gsapi","http://www.greatschools.org/school/parentReviews.page?state=GA&id=732&s_cid=gsapi"
"8459","Kingfisher Academy, Inc.","private","PK-8","Tucker","5072 LaVista Road, Tucker, GA  30084","(678) 615-2313","","http://www.kingfisher-academy.org","33.856476","-84.214165","http://www.greatschools.org/georgia/tucker/8459-Kingfisher-Academy,-Inc./?s_cid=gsapi","http://www.greatschools.org/school/rating.page?state=GA&id=8459&s_cid=gsapi","http://www.greatschools.org/school/parentReviews.page?state=GA&id=8459&s_cid=gsapi"
"731","Livsey Elementary School","public","PK-5","Tucker","4137 Livsey Rd, Tucker, GA  30084","(678) 874-3302","(678) 874-3310","","33.86829","-84.21906","http://www.greatschools.org/georgia/tucker/731-Livsey-Elementary-School/?s_cid=gsapi","http://www.greatschools.org/school/rating.page?state=GA&id=731&s_cid=gsapi","http://www.greatschools.org/school/parentReviews.page?state=GA&id=731&s_cid=gsapi"
"783","Midvale Elementary School","public","PK-5","Tucker","3836 Midvale Rd, Tucker, GA  30084","(678) 874-3402","(678) 874-3410","","33.85735","-84.23499","http://www.greatschools.org/georgia/tucker/783-Midvale-Elementary-School/?s_cid=gsapi","http://www.greatschools.org/school/rating.page?state=GA&id=783&s_cid=gsapi","http://www.greatschools.org/school/parentReviews.page?state=GA&id=783&s_cid=gsapi"
"1103","Nesbit Elementary School","public","PK-5","Tucker","6575 Cherokee Dr, Tucker, GA  30084","(770) 414-2740","(770) 414-2757","","33.87614","-84.19895","http://www.greatschools.org/georgia/tucker/1103-Nesbit-Elementary-School/?s_cid=gsapi","http://www.greatschools.org/school/rating.page?state=GA&id=1103&s_cid=gsapi","http://www.greatschools.org/school/parentReviews.page?state=GA&id=1103&s_cid=gsapi"
"6652","Ruby Christian School","private","K-8","Tucker","1800 Montreal Court, Suite A, Tucker, GA  30084","(404) 660-0066","","http://www.rubychristianschool.org/","33.834164","-84.251595","http://www.greatschools.org/georgia/tucker/6652-Ruby-Christian-School/?s_cid=gsapi","http://www.greatschools.org/school/rating.page?state=GA&id=6652&s_cid=gsapi","http://www.greatschools.org/school/parentReviews.page?state=GA&id=6652&s_cid=gsapi"
"724","Tucker High School","public","9-12","Tucker","5036 Lavista Rd, Tucker, GA  30084","(678) 874-3702","(678) 874-3710","","33.85689","-84.21636","http://www.greatschools.org/georgia/tucker/724-Tucker-High-School/?s_cid=gsapi","http://www.greatschools.org/school/rating.page?state=GA&id=724&s_cid=gsapi","http://www.greatschools.org/school/parentReviews.page?state=GA&id=724&s_cid=gsapi"
"3712","Tucker Middle School","public","6-8","Tucker","2160 Idlewood Rd, Tucker, GA  30084","(678) 875-0902","(678) 875-0910","","33.84648","-84.21446","http://www.greatschools.org/georgia/tucker/3712-Tucker-Middle-School/?s_cid=gsapi","http://www.greatschools.org/school/rating.page?state=GA&id=3712&s_cid=gsapi","http://www.greatschools.org/school/parentReviews.page?state=GA&id=3712&s_cid=gsapi"
